[{"companyCode":10,"companyName":"贵州高速集团","loadCode":10,"loadName":"玉凯","stationCode":2561,"stationName":"大龙收费站","stationType":"省界站","latitude":27.1574,"longitude":109.045978},{"companyCode":10,"companyName":"贵州高速集团","loadCode":10,"loadName":"玉凯","stationCode":2563,"stationName":"玉屏收费站","stationType":"匝道站","latitude":27.1922,"longitude":108.897006},{"companyCode":10,"companyName":"贵州高速集团","loadCode":10,"loadName":"玉凯","stationCode":2564,"stationName":"岑巩收费站","stationType":"匝道站","latitude":27.1552,"longitude":108.807252},{"companyCode":10,"companyName":"贵州高速集团","loadCode":10,"loadName":"玉凯","stationCode":2565,"stationName":"青溪收费站","stationType":"匝道站","latitude":27.1766,"longitude":108.755962},{"companyCode":10,"companyName":"贵州高速集团","loadCode":10,"loadName":"玉凯","stationCode":2566,"stationName":"三穗收费站","stationType":"匝道站","latitude":27.1784,"longitude":108.666753},{"companyCode":10,"companyName":"贵州高速集团","loadCode":10,"loadName":"玉凯","stationCode":2567,"stationName":"台烈收费站","stationType":"匝道站","latitude":27.1822,"longitude":108.609867},{"companyCode":10,"companyName":"贵州高速集团","loadCode":10,"loadName":"玉凯","stationCode":2568,"stationName":"岑松收费站","stationType":"匝道站","latitude":26.481,"longitude":108.3419},{"companyCode":10,"companyName":"贵州高速集团","loadCode":10,"loadName":"玉凯","stationCode":2569,"stationName":"剑河收费站","stationType":"匝道站","latitude":26.4414,"longitude":108.2836},{"companyCode":10,"companyName":"贵州高速集团","loadCode":10,"loadName":"玉凯","stationCode":2570,"stationName":"台江收费站","stationType":"匝道站","latitude":26.3946,"longitude":108.1854},{"companyCode":10,"companyName":"贵州高速集团","loadCode":11,"loadName":"铜大","stationCode":2817,"stationName":"铜仁南收费站","stationType":"匝道站","latitude":27.1838,"longitude":109.151207},{"companyCode":10,"companyName":"贵州高速集团","loadCode":11,"loadName":"铜大","stationCode":2818,"stationName":"万山经开区收费站","stationType":"匝道站","latitude":27.1843,"longitude":109.136617},{"companyCode":10,"companyName":"贵州高速集团","loadCode":11,"loadName":"铜大","stationCode":2819,"stationName":"七里冲收费站","stationType":"匝道站","latitude":27.1762,"longitude":109.021779},{"companyCode":10,"companyName":"贵州高速集团","loadCode":11,"loadName":"铜大","stationCode":2820,"stationName":"大龙匝道收费站","stationType":"匝道站","latitude":27.1572,"longitude":109.037502},{"companyCode":10,"companyName":"贵州高速集团","loadCode":11,"loadName":"铜大","stationCode":2821,"stationName":"茶店收费站","stationType":"匝道站","latitude":28.582027,"longitude":110.137464},{"companyCode":24,"companyName":"省公路开发公司","loadCode":12,"loadName":"大思","stationCode":3073,"stationName":"铜仁大兴收费站","stationType":"省界站","latitude":27.907456,"longitude":109.303256},{"companyCode":24,"companyName":"省公路开发公司","loadCode":12,"loadName":"大思","stationCode":3074,"stationName":"松桃苗王城收费站","stationType":"匝道站","latitude":27.902042,"longitude":109.295147},{"companyCode":24,"companyName":"省公路开发公司","loadCode":12,"loadName":"大思","stationCode":3075,"stationName":"铜仁北收费站","stationType":"匝道站","latitude":27.809539,"longitude":109.228075},{"companyCode":24,"companyName":"省公路开发公司","loadCode":12,"loadName":"大思","stationCode":3076,"stationName":"坝盘收费站","stationType":"匝道站","latitude":27.717983,"longitude":108.940494},{"companyCode":24,"companyName":"省公路开发公司","loadCode":12,"loadName":"大思","stationCode":3077,"stationName":"江口收费站","stationType":"匝道站","latitude":27.716975,"longitude":108.844258},{"companyCode":24,"companyName":"省公路开发公司","loadCode":12,"loadName":"大思","stationCode":3078,"stationName":"梵净山东收费站","stationType":"匝道站","latitude":27.7655,"longitude":108.770592},{"companyCode":24,"companyName":"省公路开发公司","loadCode":12,"loadName":"大思","stationCode":3080,"stationName":"梵净山西收费站","stationType":"匝道站","latitude":27.817869,"longitude":108.569489},{"companyCode":24,"companyName":"省公路开发公司","loadCode":12,"loadName":"大思","stationCode":3081,"stationName":"印江收费站","stationType":"匝道站","latitude":27.982258,"longitude":108.382272},{"companyCode":24,"companyName":"省公路开发公司","loadCode":12,"loadName":"大思","stationCode":3083,"stationName":"印江东收费站","stationType":"匝道站","latitude":27.5654,"longitude":108.2658},{"companyCode":24,"companyName":"省公路开发公司","loadCode":12,"loadName":"大思","stationCode":3082,"stationName":"思南东收费站","stationType":"匝道站","latitude":27.960497,"longitude":108.262761},{"companyCode":24,"companyName":"省公路开发公司","loadCode":13,"loadName":"思遵","stationCode":3329,"stationName":"温泉收费站","stationType":"匝道站","latitude":28.056429,"longitude":108.158368},{"companyCode":24,"companyName":"省公路开发公司","loadCode":13,"loadName":"思遵","stationCode":3331,"stationName":"煎茶收费站","stationType":"匝道站","latitude":28.125178,"longitude":107.954375},{"companyCode":24,"companyName":"省公路开发公司","loadCode":13,"loadName":"思遵","stationCode":3332,"stationName":"花坪收费站","stationType":"匝道站","latitude":28.0141,"longitude":107.7752},{"companyCode":24,"companyName":"省公路开发公司","loadCode":13,"loadName":"思遵","stationCode":3333,"stationName":"凤岗收费站","stationType":"匝道站","latitude":27.931,"longitude":107.7069},{"companyCode":24,"companyName":"省公路开发公司","loadCode":13,"loadName":"思遵","stationCode":3334,"stationName":"永兴收费站","stationType":"匝道站","latitude":27.881,"longitude":107.6162},{"companyCode":24,"companyName":"省公路开发公司","loadCode":13,"loadName":"思遵","stationCode":3335,"stationName":"湄潭收费站","stationType":"匝道站","latitude":27.7458,"longitude":107.4139},{"companyCode":24,"companyName":"省公路开发公司","loadCode":13,"loadName":"思遵","stationCode":3336,"stationName":"虾子收费站","stationType":"匝道站","latitude":27.6646,"longitude":107.2078},{"companyCode":24,"companyName":"省公路开发公司","loadCode":13,"loadName":"思遵","stationCode":3337,"stationName":"深溪收费站","stationType":"匝道站","latitude":27.6072,"longitude":106.9668},{"companyCode":24,"companyName":"省公路开发公司","loadCode":13,"loadName":"思遵","stationCode":3338,"stationName":"三渡收费站","stationType":"匝道站","latitude":27.69027,"longitude":107.301618},{"companyCode":10,"companyName":"贵州高速集团","loadCode":15,"loadName":"崇遵","stationCode":3841,"stationName":"松坎收费站","stationType":"省界站","latitude":28.2955,"longitude":106.501722},{"companyCode":10,"companyName":"贵州高速集团","loadCode":15,"loadName":"崇遵","stationCode":3842,"stationName":"三元收费站（崇遵）","stationType":"匝道站","latitude":28.2923,"longitude":106.498901},{"companyCode":10,"companyName":"贵州高速集团","loadCode":15,"loadName":"崇遵","stationCode":3843,"stationName":"太白收费站","stationType":"匝道站","latitude":28.2258,"longitude":106.512815},{"companyCode":10,"companyName":"贵州高速集团","loadCode":15,"loadName":"崇遵","stationCode":3844,"stationName":"楚米收费站","stationType":"匝道站","latitude":28.1131,"longitude":106.4958},{"companyCode":10,"companyName":"贵州高速集团","loadCode":15,"loadName":"崇遵","stationCode":3845,"stationName":"桐梓收费站","stationType":"匝道站","latitude":28.070196,"longitude":106.495648},{"companyCode":10,"companyName":"贵州高速集团","loadCode":15,"loadName":"崇遵","stationCode":3846,"stationName":"观坝收费站","stationType":"匝道站","latitude":27.930052,"longitude":106.913649},{"companyCode":10,"companyName":"贵州高速集团","loadCode":15,"loadName":"崇遵","stationCode":3847,"stationName":"遵义北收费站","stationType":"匝道站","latitude":27.453199,"longitude":106.550178},{"companyCode":10,"companyName":"贵州高速集团","loadCode":15,"loadName":"崇遵","stationCode":3848,"stationName":"遵义收费站","stationType":"匝道站","latitude":27.428208,"longitude":106.540285},{"companyCode":10,"companyName":"贵州高速集团","loadCode":16,"loadName":"思剑","stationCode":4097,"stationName":"思南西收费站","stationType":"匝道站","latitude":27.1816,"longitude":108.220325},{"companyCode":10,"companyName":"贵州高速集团","loadCode":16,"loadName":"思剑","stationCode":4098,"stationName":"思南南收费站","stationType":"匝道站","latitude":27.1814,"longitude":108.262012},{"companyCode":10,"companyName":"贵州高速集团","loadCode":16,"loadName":"思剑","stationCode":4099,"stationName":"塘头收费站","stationType":"匝道站","latitude":27.1828,"longitude":108.233763},{"companyCode":10,"companyName":"贵州高速集团","loadCode":16,"loadName":"思剑","stationCode":4100,"stationName":"石阡北收费站","stationType":"匝道站","latitude":27.1804,"longitude":108.223558},{"companyCode":10,"companyName":"贵州高速集团","loadCode":16,"loadName":"思剑","stationCode":4101,"stationName":"石阡收费站","stationType":"匝道站","latitude":27.1806,"longitude":108.212152},{"companyCode":10,"companyName":"贵州高速集团","loadCode":16,"loadName":"思剑","stationCode":4102,"stationName":"大地收费站","stationType":"匝道站","latitude":27.1568,"longitude":108.216639},{"companyCode":10,"companyName":"贵州高速集团","loadCode":16,"loadName":"思剑","stationCode":4103,"stationName":"羊场收费站","stationType":"匝道站","latitude":27.1898,"longitude":108.285937},{"companyCode":10,"companyName":"贵州高速集团","loadCode":16,"loadName":"思剑","stationCode":4106,"stationName":"镇远西收费站","stationType":"匝道站","latitude":27.1935,"longitude":108.362271},{"companyCode":10,"companyName":"贵州高速集团","loadCode":16,"loadName":"思剑","stationCode":4104,"stationName":"镇远南收费站","stationType":"匝道站","latitude":27.1932,"longitude":108.392589},{"companyCode":10,"companyName":"贵州高速集团","loadCode":16,"loadName":"思剑","stationCode":4105,"stationName":"金堡收费站","stationType":"匝道站","latitude":27.1646,"longitude":108.448069},{"companyCode":10,"companyName":"贵州高速集团","loadCode":17,"loadName":"茅台","stationCode":4354,"stationName":"枫香收费站","stationType":"匝道站","latitude":27.602035,"longitude":106.539417},{"companyCode":10,"companyName":"贵州高速集团","loadCode":17,"loadName":"茅台","stationCode":4355,"stationName":"平正收费站","stationType":"匝道站","latitude":27.645704,"longitude":106.468369},{"companyCode":10,"companyName":"贵州高速集团","loadCode":17,"loadName":"茅台","stationCode":4356,"stationName":"坛厂收费站","stationType":"匝道站","latitude":27.737113,"longitude":106.41688},{"companyCode":10,"companyName":"贵州高速集团","loadCode":17,"loadName":"茅台","stationCode":4357,"stationName":"仁怀收费站","stationType":"匝道站","latitude":27.780844,"longitude":106.389492},{"companyCode":10,"companyName":"贵州高速集团","loadCode":17,"loadName":"茅台","stationCode":4358,"stationName":"茅台收费站","stationType":"匝道站","latitude":27.789331,"longitude":106.385772},{"companyCode":23,"companyName":"中交贵都","loadCode":18,"loadName":"贵都","stationCode":4609,"stationName":"龙里收费站","stationType":"匝道站","latitude":26.26,"longitude":106.55},{"companyCode":23,"companyName":"中交贵都","loadCode":18,"loadName":"贵都","stationCode":4610,"stationName":"贵定南收费站","stationType":"匝道站","latitude":26.2,"longitude":107.09},{"companyCode":23,"companyName":"中交贵都","loadCode":18,"loadName":"贵都","stationCode":4611,"stationName":"都匀西收费站","stationType":"匝道站","latitude":26.16,"longitude":107.24},{"companyCode":300,"companyName":"贵阳水交投","loadCode":18,"loadName":"贵都","stationCode":4612,"stationName":"秦棋收费站","stationType":"匝道站","latitude":26.31,"longitude":106.46},{"companyCode":10,"companyName":"贵州高速集团","loadCode":20,"loadName":"凯麻","stationCode":5121,"stationName":"凯里东收费站","stationType":"匝道站","latitude":26.3505,"longitude":108.0228},{"companyCode":10,"companyName":"贵州高速集团","loadCode":20,"loadName":"凯麻","stationCode":5122,"stationName":"凯里收费站","stationType":"匝道站","latitude":26.3258,"longitude":107.5628},{"companyCode":10,"companyName":"贵州高速集团","loadCode":20,"loadName":"凯麻","stationCode":5123,"stationName":"凯里西收费站","stationType":"匝道站","latitude":26.3122,"longitude":107.4751},{"companyCode":10,"companyName":"贵州高速集团","loadCode":20,"loadName":"凯麻","stationCode":5124,"stationName":"麻江收费站","stationType":"匝道站","latitude":26.3008,"longitude":107.3546},{"companyCode":10,"companyName":"贵州高速集团","loadCode":21,"loadName":"黎洛","stationCode":5377,"stationName":"黎平北收费站","stationType":"匝道站","latitude":26.1758,"longitude":109.0807},{"companyCode":10,"companyName":"贵州高速集团","loadCode":21,"loadName":"黎洛","stationCode":5378,"stationName":"黎平南收费站","stationType":"匝道站","latitude":26.1207,"longitude":109.081},{"companyCode":10,"companyName":"贵州高速集团","loadCode":21,"loadName":"黎洛","stationCode":5379,"stationName":"中潮收费站","stationType":"匝道站","latitude":26.0601,"longitude":109.096},{"companyCode":10,"companyName":"贵州高速集团","loadCode":21,"loadName":"黎洛","stationCode":5380,"stationName":"永从收费站","stationType":"匝道站","latitude":26.0021,"longitude":109.136096},{"companyCode":10,"companyName":"贵州高速集团","loadCode":22,"loadName":"水都","stationCode":5633,"stationName":"都匀东收费站","stationType":"匝道站","latitude":26.102,"longitude":107.3716},{"companyCode":10,"companyName":"贵州高速集团","loadCode":22,"loadName":"水都","stationCode":5635,"stationName":"三都收费站","stationType":"匝道站","latitude":27.178,"longitude":107.885687},{"companyCode":10,"companyName":"贵州高速集团","loadCode":22,"loadName":"水都","stationCode":5636,"stationName":"榕江收费站","stationType":"匝道站","latitude":25.906812,"longitude":108.506995},{"companyCode":10,"companyName":"贵州高速集团","loadCode":22,"loadName":"水都","stationCode":5637,"stationName":"往洞收费站","stationType":"匝道站","latitude":25.5255,"longitude":108.415},{"companyCode":10,"companyName":"贵州高速集团","loadCode":22,"loadName":"水都","stationCode":5638,"stationName":"从江北收费站","stationType":"匝道站","latitude":25.5344,"longitude":108.5046},{"companyCode":10,"companyName":"贵州高速集团","loadCode":22,"loadName":"水都","stationCode":5639,"stationName":"双江收费站","stationType":"匝道站","latitude":25.93897,"longitude":108.922827},{"companyCode":10,"companyName":"贵州高速集团","loadCode":22,"loadName":"水都","stationCode":5640,"stationName":"从江东收费站","stationType":"匝道站","latitude":25.912505,"longitude":109.097186},{"companyCode":10,"companyName":"贵州高速集团","loadCode":22,"loadName":"水都","stationCode":5641,"stationName":"水口收费站","stationType":"匝道站","latitude":25.908401,"longitude":109.296907},{"companyCode":10,"companyName":"贵州高速集团","loadCode":22,"loadName":"水都","stationCode":5642,"stationName":"雷洞收费站","stationType":"省界站","latitude":25.907872,"longitude":109.3294},{"companyCode":10,"companyName":"贵州高速集团","loadCode":25,"loadName":"贵遵","stationCode":6401,"stationName":"遵义南收费站","stationType":"匝道站","latitude":27.383116,"longitude":106.530318},{"companyCode":10,"companyName":"贵州高速集团","loadCode":25,"loadName":"贵遵","stationCode":6402,"stationName":"马家湾收费站","stationType":"匝道站","latitude":27.245,"longitude":106.5146},{"companyCode":10,"companyName":"贵州高速集团","loadCode":25,"loadName":"贵遵","stationCode":6414,"stationName":"南白收费站","stationType":"匝道站","latitude":27.502153,"longitude":106.815143},{"companyCode":10,"companyName":"贵州高速集团","loadCode":25,"loadName":"贵遵","stationCode":6404,"stationName":"三合收费站","stationType":"匝道站","latitude":27.422377,"longitude":106.768939},{"companyCode":10,"companyName":"贵州高速集团","loadCode":25,"loadName":"贵遵","stationCode":6405,"stationName":"乌江收费站","stationType":"匝道站","latitude":27.288804,"longitude":106.774077},{"companyCode":10,"companyName":"贵州高速集团","loadCode":25,"loadName":"贵遵","stationCode":6406,"stationName":"小寨坝收费站","stationType":"匝道站","latitude":27.1112,"longitude":106.4348},{"companyCode":10,"companyName":"贵州高速集团","loadCode":25,"loadName":"贵遵","stationCode":6407,"stationName":"息烽收费站","stationType":"匝道站","latitude":27.053,"longitude":106.4225},{"companyCode":10,"companyName":"贵州高速集团","loadCode":25,"loadName":"贵遵","stationCode":6415,"stationName":"息烽南收费站","stationType":"匝道站","latitude":26.997772,"longitude":106.693538},{"companyCode":10,"companyName":"贵州高速集团","loadCode":25,"loadName":"贵遵","stationCode":6408,"stationName":"久长收费站","stationType":"匝道站","latitude":26.5542,"longitude":106.4118},{"companyCode":10,"companyName":"贵州高速集团","loadCode":25,"loadName":"贵遵","stationCode":6409,"stationName":"扎佐收费站","stationType":"匝道站","latitude":26.5204,"longitude":106.4229},{"companyCode":10,"companyName":"贵州高速集团","loadCode":25,"loadName":"贵遵","stationCode":6410,"stationName":"三元收费站（贵遵）","stationType":"匝道站","latitude":27.1786,"longitude":0},{"companyCode":10,"companyName":"贵州高速集团","loadCode":25,"loadName":"贵遵","stationCode":6411,"stationName":"沙文收费站","stationType":"匝道站","latitude":26.4353,"longitude":106.4129},{"companyCode":10,"companyName":"贵州高速集团","loadCode":25,"loadName":"贵遵","stationCode":6412,"stationName":"贵阳北收费站","stationType":"主线站(非省界)","latitude":26.4044,"longitude":106.4008},{"companyCode":10,"companyName":"贵州高速集团","loadCode":25,"loadName":"贵遵","stationCode":6413,"stationName":"修文收费站","stationType":"匝道站","latitude":26.5213,"longitude":106.4155},{"companyCode":10,"companyName":"贵州高速集团","loadCode":26,"loadName":"遵毕","stationCode":6657,"stationName":"鸭溪收费站","stationType":"匝道站","latitude":27.589583,"longitude":106.667402},{"companyCode":10,"companyName":"贵州高速集团","loadCode":26,"loadName":"遵毕","stationCode":6658,"stationName":"泮水收费站","stationType":"匝道站","latitude":27.522232,"longitude":106.373183},{"companyCode":10,"companyName":"贵州高速集团","loadCode":26,"loadName":"遵毕","stationCode":6659,"stationName":"金沙收费站","stationType":"匝道站","latitude":27.499444,"longitude":106.245278},{"companyCode":10,"companyName":"贵州高速集团","loadCode":26,"loadName":"遵毕","stationCode":6660,"stationName":"金沙西收费站","stationType":"匝道站","latitude":27.388889,"longitude":106.0875},{"companyCode":10,"companyName":"贵州高速集团","loadCode":26,"loadName":"遵毕","stationCode":6661,"stationName":"雨冲收费站","stationType":"匝道站","latitude":27.344722,"longitude":105.993611},{"companyCode":10,"companyName":"贵州高速集团","loadCode":26,"loadName":"遵毕","stationCode":6662,"stationName":"百里杜鹃收费站","stationType":"匝道站","latitude":27.262778,"longitude":105.814722},{"companyCode":10,"companyName":"贵州高速集团","loadCode":26,"loadName":"遵毕","stationCode":6663,"stationName":"大方收费站","stationType":"匝道站","latitude":27.201389,"longitude":105.602222},{"companyCode":10,"companyName":"贵州高速集团","loadCode":26,"loadName":"遵毕","stationCode":6664,"stationName":"响水收费站","stationType":"匝道站","latitude":27.237778,"longitude":105.517222},{"companyCode":10,"companyName":"贵州高速集团","loadCode":26,"loadName":"遵毕","stationCode":6665,"stationName":"毕节东收费站","stationType":"匝道站","latitude":27.243889,"longitude":105.431389},{"companyCode":10,"companyName":"贵州高速集团","loadCode":26,"loadName":"遵毕","stationCode":6666,"stationName":"马蹄收费站","stationType":"匝道站","latitude":27.540707,"longitude":106.50765},{"companyCode":10,"companyName":"贵州高速集团","loadCode":26,"loadName":"遵毕","stationCode":6667,"stationName":"凤山收费站","stationType":"匝道站","latitude":27.212222,"longitude":105.6875},{"companyCode":38,"companyName":"遵高投","loadCode":27,"loadName":"遵绥","stationCode":6913,"stationName":"绥阳收费站","stationType":"匝道站","latitude":27.960441,"longitude":107.16034},{"companyCode":38,"companyName":"遵高投","loadCode":27,"loadName":"遵绥","stationCode":6914,"stationName":"牛心收费站","stationType":"匝道站","latitude":27.915725,"longitude":107.128485},{"companyCode":38,"companyName":"遵高投","loadCode":27,"loadName":"遵绥","stationCode":6915,"stationName":"蒲场收费站","stationType":"匝道站","latitude":27.894565,"longitude":107.85909},{"companyCode":38,"companyName":"遵高投","loadCode":27,"loadName":"遵绥","stationCode":6916,"stationName":"四面山收费站","stationType":"匝道站","latitude":27.83529,"longitude":107.01567},{"companyCode":38,"companyName":"遵高投","loadCode":27,"loadName":"遵绥","stationCode":6917,"stationName":"李子垭收费站","stationType":"匝道站","latitude":27.472505,"longitude":106.958038},{"companyCode":10,"companyName":"贵州高速集团","loadCode":30,"loadName":"清镇","stationCode":7681,"stationName":"庙儿山收费站","stationType":"匝道站","latitude":26.3252,"longitude":106.2744},{"companyCode":10,"companyName":"贵州高速集团","loadCode":30,"loadName":"清镇","stationCode":7682,"stationName":"夏云收费站","stationType":"匝道站","latitude":27.1862,"longitude":106.1822},{"companyCode":10,"companyName":"贵州高速集团","loadCode":30,"loadName":"清镇","stationCode":7683,"stationName":"平坝收费站","stationType":"匝道站","latitude":27.1752,"longitude":106.1425},{"companyCode":10,"companyName":"贵州高速集团","loadCode":30,"loadName":"清镇","stationCode":7684,"stationName":"天龙收费站","stationType":"匝道站","latitude":27.183,"longitude":106.0948},{"companyCode":10,"companyName":"贵州高速集团","loadCode":30,"loadName":"清镇","stationCode":7685,"stationName":"安顺东收费站","stationType":"匝道站","latitude":26.1793,"longitude":106.068},{"companyCode":10,"companyName":"贵州高速集团","loadCode":30,"loadName":"清镇","stationCode":7686,"stationName":"安顺南收费站","stationType":"匝道站","latitude":26.1357,"longitude":105.5649},{"companyCode":10,"companyName":"贵州高速集团","loadCode":30,"loadName":"清镇","stationCode":7687,"stationName":"龙宫收费站","stationType":"匝道站","latitude":27.1706,"longitude":105.4944},{"companyCode":10,"companyName":"贵州高速集团","loadCode":32,"loadName":"贵清","stationCode":8193,"stationName":"贵阳西收费站","stationType":"主线站(非省界)","latitude":26.3556,"longitude":106.3536},{"companyCode":10,"companyName":"贵州高速集团","loadCode":32,"loadName":"贵清","stationCode":8194,"stationName":"清镇收费站","stationType":"匝道站","latitude":26.3325,"longitude":106.2911},{"companyCode":24,"companyName":"省公路开发公司","loadCode":34,"loadName":"安顺绕城","stationCode":8705,"stationName":"兴东收费站","stationType":"匝道站","latitude":26.1558,"longitude":105.4914},{"companyCode":24,"companyName":"省公路开发公司","loadCode":34,"loadName":"安顺绕城","stationCode":8706,"stationName":"安顺西收费站","stationType":"匝道站","latitude":26.1155,"longitude":105.5044},{"companyCode":10,"companyName":"贵州高速集团","loadCode":35,"loadName":"贵新","stationCode":8962,"stationName":"龙里东收费站","stationType":"匝道站","latitude":106.585,"longitude":26.2742},{"companyCode":10,"companyName":"贵州高速集团","loadCode":35,"loadName":"贵新","stationCode":8963,"stationName":"盘江收费站","stationType":"匝道站","latitude":26.301,"longitude":107.936},{"companyCode":10,"companyName":"贵州高速集团","loadCode":35,"loadName":"贵新","stationCode":8964,"stationName":"贵定收费站","stationType":"匝道站","latitude":26.3416,"longitude":107.346},{"companyCode":10,"companyName":"贵州高速集团","loadCode":35,"loadName":"贵新","stationCode":8965,"stationName":"黄丝收费站","stationType":"匝道站","latitude":26.354,"longitude":107.246},{"companyCode":10,"companyName":"贵州高速集团","loadCode":35,"loadName":"贵新","stationCode":8966,"stationName":"马场坪收费站","stationType":"匝道站","latitude":26.3738,"longitude":107.3059},{"companyCode":10,"companyName":"贵州高速集团","loadCode":35,"loadName":"贵新","stationCode":8967,"stationName":"都匀北收费站","stationType":"匝道站","latitude":26.1859,"longitude":107.3024},{"companyCode":10,"companyName":"贵州高速集团","loadCode":35,"loadName":"贵新","stationCode":8968,"stationName":"都匀南收费站","stationType":"匝道站","latitude":26.1224,"longitude":107.2936},{"companyCode":10,"companyName":"贵州高速集团","loadCode":35,"loadName":"贵新","stationCode":8969,"stationName":"墨冲收费站","stationType":"匝道站","latitude":26.33,"longitude":107.2736},{"companyCode":10,"companyName":"贵州高速集团","loadCode":35,"loadName":"贵新","stationCode":8970,"stationName":"独山收费站","stationType":"匝道站","latitude":25.513,"longitude":107.3246},{"companyCode":10,"companyName":"贵州高速集团","loadCode":35,"loadName":"贵新","stationCode":8971,"stationName":"上司收费站","stationType":"匝道站","latitude":25.3638,"longitude":107.2916},{"companyCode":10,"companyName":"贵州高速集团","loadCode":35,"loadName":"贵新","stationCode":8972,"stationName":"下司收费站（贵新）","stationType":"匝道站","latitude":25.285,"longitude":107.2545},{"companyCode":10,"companyName":"贵州高速集团","loadCode":35,"loadName":"贵新","stationCode":8973,"stationName":"麻尾收费站","stationType":"匝道站","latitude":25.21,"longitude":107.2632},{"companyCode":10,"companyName":"贵州高速集团","loadCode":35,"loadName":"贵新","stationCode":8974,"stationName":"新寨收费站","stationType":"省界站","latitude":25.2118,"longitude":107.2529},{"companyCode":10,"companyName":"贵州高速集团","loadCode":35,"loadName":"贵新","stationCode":8976,"stationName":"龙里西收费站","stationType":"匝道站","latitude":26.2932,"longitude":106.5212},{"companyCode":24,"companyName":"省公路开发公司","loadCode":36,"loadName":"普安高速","stationCode":9217,"stationName":"普定收费站","stationType":"匝道站","latitude":26.1931,"longitude":105.4456},{"companyCode":24,"companyName":"省公路开发公司","loadCode":36,"loadName":"普安高速","stationCode":9218,"stationName":"白岩收费站","stationType":"匝道站","latitude":26.1817,"longitude":105.5221},{"companyCode":24,"companyName":"省公路开发公司","loadCode":36,"loadName":"普安高速","stationCode":9219,"stationName":"蔡官收费站","stationType":"匝道站","latitude":26.1859,"longitude":105.5745},{"companyCode":301,"companyName":"交建集团直属路段","loadCode":37,"loadName":"黔织","stationCode":9474,"stationName":"金碧收费站","stationType":"匝道站","latitude":26.95326,"longitude":105.96972},{"companyCode":301,"companyName":"交建集团直属路段","loadCode":37,"loadName":"黔织","stationCode":9475,"stationName":"沙井收费站","stationType":"匝道站","latitude":26.84779,"longitude":105.93248},{"companyCode":301,"companyName":"交建集团直属路段","loadCode":37,"loadName":"黔织","stationCode":9476,"stationName":"织金洞西收费站","stationType":"匝道站","latitude":26.79273,"longitude":105.86321},{"companyCode":29,"companyName":"毕高发","loadCode":38,"loadName":"毕威","stationCode":9729,"stationName":"毕节西收费站","stationType":"匝道站","latitude":27.240567,"longitude":105.31056},{"companyCode":29,"companyName":"毕高发","loadCode":38,"loadName":"毕威","stationCode":9730,"stationName":"长春堡收费站","stationType":"匝道站","latitude":27.246627,"longitude":105.205587},{"companyCode":29,"companyName":"毕高发","loadCode":38,"loadName":"毕威","stationCode":9731,"stationName":"撒拉溪收费站","stationType":"匝道站","latitude":27.216958,"longitude":105.052866},{"companyCode":29,"companyName":"毕高发","loadCode":38,"loadName":"毕威","stationCode":9732,"stationName":"杨家湾收费站","stationType":"匝道站","latitude":27.168841,"longitude":104.957654},{"companyCode":29,"companyName":"毕高发","loadCode":38,"loadName":"毕威","stationCode":9733,"stationName":"野马川收费站","stationType":"匝道站","latitude":27.138285,"longitude":104.875959},{"companyCode":29,"companyName":"毕高发","loadCode":38,"loadName":"毕威","stationCode":9734,"stationName":"赫章收费站","stationType":"匝道站","latitude":27.133422,"longitude":104.740297},{"companyCode":29,"companyName":"毕高发","loadCode":38,"loadName":"毕威","stationCode":9735,"stationName":"水塘收费站","stationType":"匝道站","latitude":27.081936,"longitude":104.614208},{"companyCode":29,"companyName":"毕高发","loadCode":38,"loadName":"毕威","stationCode":9736,"stationName":"阿维寨收费站","stationType":"匝道站","latitude":27.009356,"longitude":104.498777},{"companyCode":29,"companyName":"毕高发","loadCode":38,"loadName":"毕威","stationCode":9737,"stationName":"杨家洼收费站","stationType":"匝道站","latitude":26.97405,"longitude":104.383572},{"companyCode":29,"companyName":"毕高发","loadCode":38,"loadName":"毕威","stationCode":9738,"stationName":"威宁北收费站","stationType":"匝道站","latitude":26.908967,"longitude":104.300436},{"companyCode":38,"companyName":"遵高投","loadCode":39,"loadName":"青檬","stationCode":9985,"stationName":"遵义东收费站","stationType":"匝道站","latitude":27.714319,"longitude":107.100312},{"companyCode":38,"companyName":"遵高投","loadCode":39,"loadName":"青檬","stationCode":9986,"stationName":"团泽收费站","stationType":"匝道站","latitude":27.785474,"longitude":107.077095},{"companyCode":10,"companyName":"贵州高速集团","loadCode":40,"loadName":"镇胜","stationCode":10241,"stationName":"镇宁收费站","stationType":"匝道站","latitude":27.193,"longitude":105.4508},{"companyCode":10,"companyName":"贵州高速集团","loadCode":40,"loadName":"镇胜","stationCode":10242,"stationName":"黄果树收费站","stationType":"匝道站","latitude":27.163,"longitude":105.4035},{"companyCode":10,"companyName":"贵州高速集团","loadCode":40,"loadName":"镇胜","stationCode":10243,"stationName":"关岭收费站","stationType":"匝道站","latitude":27.1616,"longitude":105.3528},{"companyCode":10,"companyName":"贵州高速集团","loadCode":40,"loadName":"镇胜","stationCode":10244,"stationName":"永宁收费站","stationType":"匝道站","latitude":27.1914,"longitude":105.2926},{"companyCode":10,"companyName":"贵州高速集团","loadCode":40,"loadName":"镇胜","stationCode":10245,"stationName":"岗乌收费站","stationType":"匝道站","latitude":27.1612,"longitude":105.2101},{"companyCode":10,"companyName":"贵州高速集团","loadCode":40,"loadName":"镇胜","stationCode":10246,"stationName":"晴隆收费站","stationType":"匝道站","latitude":27.1772,"longitude":105.1313},{"companyCode":10,"companyName":"贵州高速集团","loadCode":40,"loadName":"镇胜","stationCode":10247,"stationName":"沙子收费站","stationType":"匝道站","latitude":27.1792,"longitude":105.0847},{"companyCode":10,"companyName":"贵州高速集团","loadCode":40,"loadName":"镇胜","stationCode":10248,"stationName":"普安收费站","stationType":"匝道站","latitude":27.1758,"longitude":104.5802},{"companyCode":10,"companyName":"贵州高速集团","loadCode":40,"loadName":"镇胜","stationCode":10249,"stationName":"英武收费站","stationType":"匝道站","latitude":25.476758,"longitude":104.499447},{"companyCode":10,"companyName":"贵州高速集团","loadCode":40,"loadName":"镇胜","stationCode":10250,"stationName":"刘官收费站","stationType":"匝道站","latitude":25.492782,"longitude":104.400115},{"companyCode":10,"companyName":"贵州高速集团","loadCode":40,"loadName":"镇胜","stationCode":10251,"stationName":"两河收费站","stationType":"匝道站","latitude":25.484561,"longitude":104.349681},{"companyCode":10,"companyName":"贵州高速集团","loadCode":40,"loadName":"镇胜","stationCode":10252,"stationName":"红果北收费站","stationType":"匝道站","latitude":25.453449,"longitude":104.286757},{"companyCode":10,"companyName":"贵州高速集团","loadCode":40,"loadName":"镇胜","stationCode":10253,"stationName":"红果西收费站","stationType":"匝道站","latitude":25.43036,"longitude":104.239286},{"companyCode":10,"companyName":"贵州高速集团","loadCode":40,"loadName":"镇胜","stationCode":10254,"stationName":"平关收费站","stationType":"匝道站","latitude":25.399856,"longitude":104.208744},{"companyCode":10,"companyName":"贵州高速集团","loadCode":40,"loadName":"镇胜","stationCode":10255,"stationName":"胜境关收费站","stationType":"省界站","latitude":25.382657,"longitude":104.191377},{"companyCode":10,"companyName":"贵州高速集团","loadCode":40,"loadName":"镇胜","stationCode":10256,"stationName":"盘州收费站","stationType":"匝道站","latitude":25.731916,"longitude":104.443046},{"companyCode":10,"companyName":"贵州高速集团","loadCode":41,"loadName":"麻驾","stationCode":10497,"stationName":"秧寨收费站","stationType":"匝道站","latitude":25.222,"longitude":107.3058},{"companyCode":10,"companyName":"贵州高速集团","loadCode":41,"loadName":"麻驾","stationCode":10498,"stationName":"小七孔收费站","stationType":"匝道站","latitude":25.1819,"longitude":107.4028},{"companyCode":20,"companyName":"金云关","loadCode":89,"loadName":"贵黄","stationCode":22785,"stationName":"金华收费站","stationType":"匝道站","latitude":26.584119,"longitude":106.59366},{"companyCode":20,"companyName":"金云关","loadCode":42,"loadName":"贵黄","stationCode":10754,"stationName":"林东收费站","stationType":"匝道站","latitude":26.57795,"longitude":106.573657},{"companyCode":20,"companyName":"金云关","loadCode":42,"loadName":"贵黄","stationCode":10755,"stationName":"东门桥收费站","stationType":"匝道站","latitude":26.558934,"longitude":106.491986},{"companyCode":10,"companyName":"贵州高速集团","loadCode":44,"loadName":"板江","stationCode":11265,"stationName":"板坝收费站","stationType":"省界站","latitude":24.4847,"longitude":105.3145},{"companyCode":10,"companyName":"贵州高速集团","loadCode":44,"loadName":"板江","stationCode":11266,"stationName":"巧马收费站","stationType":"匝道站","latitude":24.912348,"longitude":105.555109},{"companyCode":10,"companyName":"贵州高速集团","loadCode":44,"loadName":"板江","stationCode":11267,"stationName":"安龙收费站","stationType":"匝道站","latitude":25.0404,"longitude":105.2235},{"companyCode":10,"companyName":"贵州高速集团","loadCode":44,"loadName":"板江","stationCode":11268,"stationName":"德卧收费站","stationType":"匝道站","latitude":25.527,"longitude":105.156},{"companyCode":10,"companyName":"贵州高速集团","loadCode":44,"loadName":"板江","stationCode":11269,"stationName":"鲁屯收费站","stationType":"匝道站","latitude":25.113,"longitude":105.6125},{"companyCode":10,"companyName":"贵州高速集团","loadCode":44,"loadName":"板江","stationCode":11270,"stationName":"万屯收费站","stationType":"匝道站","latitude":25.128,"longitude":105.234},{"companyCode":10,"companyName":"贵州高速集团","loadCode":44,"loadName":"板江","stationCode":11275,"stationName":"义龙西收费站","stationType":"匝道站","latitude":25.158644,"longitude":104.964017},{"companyCode":10,"companyName":"贵州高速集团","loadCode":44,"loadName":"板江","stationCode":11271,"stationName":"兴义东收费站","stationType":"匝道站","latitude":25.841,"longitude":104.5546},{"companyCode":10,"companyName":"贵州高速集团","loadCode":44,"loadName":"板江","stationCode":11272,"stationName":"兴义西收费站","stationType":"匝道站","latitude":25.752,"longitude":104.5032},{"companyCode":10,"companyName":"贵州高速集团","loadCode":44,"loadName":"板江","stationCode":11273,"stationName":"乌沙收费站","stationType":"匝道站","latitude":25.836,"longitude":104.4715},{"companyCode":10,"companyName":"贵州高速集团","loadCode":44,"loadName":"板江","stationCode":11274,"stationName":"岔江收费站","stationType":"省界站","latitude":25.422,"longitude":104.436},{"companyCode":24,"companyName":"省公路开发公司","loadCode":45,"loadName":"晴兴","stationCode":11521,"stationName":"江西坡收费站","stationType":"匝道站","latitude":25.745801,"longitude":105.087305},{"companyCode":24,"companyName":"省公路开发公司","loadCode":45,"loadName":"晴兴","stationCode":11522,"stationName":"大厂收费站","stationType":"匝道站","latitude":25.612729,"longitude":105.099223},{"companyCode":24,"companyName":"省公路开发公司","loadCode":45,"loadName":"晴兴","stationCode":11523,"stationName":"潘家庄收费站","stationType":"匝道站","latitude":25.55986,"longitude":105.136087},{"companyCode":24,"companyName":"省公路开发公司","loadCode":45,"loadName":"晴兴","stationCode":11524,"stationName":"雨樟收费站","stationType":"匝道站","latitude":25.352101,"longitude":105.099004},{"companyCode":10,"companyName":"贵州高速集团","loadCode":46,"loadName":"惠兴","stationCode":11778,"stationName":"长顺东收费站","stationType":"匝道站","latitude":26.0209,"longitude":106.312},{"companyCode":10,"companyName":"贵州高速集团","loadCode":46,"loadName":"惠兴","stationCode":11779,"stationName":"长顺西收费站","stationType":"匝道站","latitude":25.5945,"longitude":106.2621},{"companyCode":10,"companyName":"贵州高速集团","loadCode":46,"loadName":"惠兴","stationCode":11780,"stationName":"摆所收费站","stationType":"匝道站","latitude":25.5747,"longitude":106.2008},{"companyCode":10,"companyName":"贵州高速集团","loadCode":46,"loadName":"惠兴","stationCode":11781,"stationName":"板当收费站","stationType":"匝道站","latitude":25.5242,"longitude":106.1314},{"companyCode":10,"companyName":"贵州高速集团","loadCode":46,"loadName":"惠兴","stationCode":11782,"stationName":"紫云收费站","stationType":"匝道站","latitude":25.455,"longitude":106.414},{"companyCode":10,"companyName":"贵州高速集团","loadCode":46,"loadName":"惠兴","stationCode":11783,"stationName":"乐纪收费站","stationType":"匝道站","latitude":25.4258,"longitude":105.5535},{"companyCode":10,"companyName":"贵州高速集团","loadCode":46,"loadName":"惠兴","stationCode":11784,"stationName":"乐运收费站","stationType":"匝道站","latitude":25.3352,"longitude":105.5136},{"companyCode":10,"companyName":"贵州高速集团","loadCode":46,"loadName":"惠兴","stationCode":11785,"stationName":"坝草收费站","stationType":"匝道站","latitude":25.3028,"longitude":105.4811},{"companyCode":10,"companyName":"贵州高速集团","loadCode":46,"loadName":"惠兴","stationCode":11786,"stationName":"白层收费站","stationType":"匝道站","latitude":25.2759,"longitude":105.4353},{"companyCode":10,"companyName":"贵州高速集团","loadCode":46,"loadName":"惠兴","stationCode":11787,"stationName":"贞丰收费站","stationType":"匝道站","latitude":25.2457,"longitude":105.3757},{"companyCode":10,"companyName":"贵州高速集团","loadCode":46,"loadName":"惠兴","stationCode":11788,"stationName":"龙场收费站（惠兴）","stationType":"匝道站","latitude":25.2734,"longitude":105.3014},{"companyCode":10,"companyName":"贵州高速集团","loadCode":46,"loadName":"惠兴","stationCode":11789,"stationName":"巴玲收费站 ","stationType":"匝道站","latitude":25.297,"longitude":105.2157},{"companyCode":10,"companyName":"贵州高速集团","loadCode":46,"loadName":"惠兴","stationCode":11790,"stationName":"兴仁东收费站","stationType":"匝道站","latitude":25.2711,"longitude":105.1322},{"companyCode":10,"companyName":"贵州高速集团","loadCode":46,"loadName":"惠兴","stationCode":11791,"stationName":"兴仁北收费站","stationType":"匝道站","latitude":25.265,"longitude":105.106},{"companyCode":10,"companyName":"贵州高速集团","loadCode":47,"loadName":"水盘","stationCode":12034,"stationName":"发耳收费站","stationType":"匝道站","latitude":26.313421,"longitude":104.790692},{"companyCode":10,"companyName":"贵州高速集团","loadCode":47,"loadName":"水盘","stationCode":12035,"stationName":"营盘收费站","stationType":"匝道站","latitude":26.162902,"longitude":104.729663},{"companyCode":10,"companyName":"贵州高速集团","loadCode":47,"loadName":"水盘","stationCode":12036,"stationName":"雨格收费站","stationType":"匝道站","latitude":26.105732,"longitude":104.662696},{"companyCode":10,"companyName":"贵州高速集团","loadCode":47,"loadName":"水盘","stationCode":12037,"stationName":"鸡场坪收费站","stationType":"匝道站","latitude":25.976175,"longitude":104.62308},{"companyCode":10,"companyName":"贵州高速集团","loadCode":47,"loadName":"水盘","stationCode":12039,"stationName":"松河收费站","stationType":"匝道站","latitude":26.015396,"longitude":104.37259},{"companyCode":10,"companyName":"贵州高速集团","loadCode":47,"loadName":"水盘","stationCode":12038,"stationName":"滑石收费站","stationType":"匝道站","latitude":25.911966,"longitude":104.597781},{"companyCode":303,"companyName":"交建集团桥梁公司","loadCode":48,"loadName":"贵惠","stationCode":12289,"stationName":"贵阳南收费站","stationType":"主线站(非省界)","latitude":26.3382,"longitude":106.713},{"companyCode":303,"companyName":"交建集团桥梁公司","loadCode":48,"loadName":"贵惠","stationCode":12290,"stationName":"青岩收费站","stationType":"匝道站","latitude":26.3339,"longitude":106.702833},{"companyCode":303,"companyName":"交建集团桥梁公司","loadCode":48,"loadName":"贵惠","stationCode":12291,"stationName":"惠水北收费站","stationType":"匝道站","latitude":26.2298,"longitude":106.6816},{"companyCode":303,"companyName":"交建集团桥梁公司","loadCode":48,"loadName":"贵惠","stationCode":12292,"stationName":"惠水收费站","stationType":"匝道站","latitude":26.144,"longitude":106.6601},{"companyCode":24,"companyName":"省公路开发公司","loadCode":49,"loadName":"仁赤","stationCode":12545,"stationName":"仁怀北收费站","stationType":"匝道站","latitude":27.8455,"longitude":106.4231},{"companyCode":24,"companyName":"省公路开发公司","loadCode":49,"loadName":"仁赤","stationCode":12546,"stationName":"银水收费站","stationType":"匝道站","latitude":27.9438,"longitude":106.4263},{"companyCode":24,"companyName":"省公路开发公司","loadCode":49,"loadName":"仁赤","stationCode":12547,"stationName":"大坝收费站","stationType":"匝道站","latitude":28.014,"longitude":106.4073},{"companyCode":24,"companyName":"省公路开发公司","loadCode":49,"loadName":"仁赤","stationCode":12548,"stationName":"火石岗收费站","stationType":"匝道站","latitude":28.0771,"longitude":106.4189},{"companyCode":24,"companyName":"省公路开发公司","loadCode":49,"loadName":"仁赤","stationCode":12549,"stationName":"二郎收费站","stationType":"匝道站","latitude":28.1803,"longitude":106.3286},{"companyCode":24,"companyName":"省公路开发公司","loadCode":49,"loadName":"仁赤","stationCode":12550,"stationName":"习水收费站","stationType":"匝道站","latitude":28.3019,"longitude":106.2064},{"companyCode":24,"companyName":"省公路开发公司","loadCode":49,"loadName":"仁赤","stationCode":12551,"stationName":"柑甜收费站","stationType":"匝道站","latitude":28.2292,"longitude":106.1564},{"companyCode":24,"companyName":"省公路开发公司","loadCode":49,"loadName":"仁赤","stationCode":12552,"stationName":"土城收费站","stationType":"匝道站","latitude":28.2809,"longitude":105.9855},{"companyCode":24,"companyName":"省公路开发公司","loadCode":49,"loadName":"仁赤","stationCode":12553,"stationName":"元厚收费站","stationType":"匝道站","latitude":28.3645,"longitude":105.9372},{"companyCode":24,"companyName":"省公路开发公司","loadCode":49,"loadName":"仁赤","stationCode":12554,"stationName":"旺隆收费站","stationType":"匝道站","latitude":28.5062,"longitude":105.8921},{"companyCode":24,"companyName":"省公路开发公司","loadCode":49,"loadName":"仁赤","stationCode":12555,"stationName":"月亮田收费站","stationType":"匝道站","latitude":28.5517,"longitude":105.7783},{"companyCode":24,"companyName":"省公路开发公司","loadCode":49,"loadName":"仁赤","stationCode":12556,"stationName":"赤水收费站","stationType":"省界站","latitude":28.5702,"longitude":105.7497},{"companyCode":10,"companyName":"贵州高速集团","loadCode":50,"loadName":"六镇","stationCode":12801,"stationName":"六枝东收费站","stationType":"匝道站","latitude":26.202588,"longitude":105.500674},{"companyCode":10,"companyName":"贵州高速集团","loadCode":50,"loadName":"六镇","stationCode":12802,"stationName":"落别收费站","stationType":"匝道站","latitude":26.133164,"longitude":105.582626},{"companyCode":10,"companyName":"贵州高速集团","loadCode":50,"loadName":"六镇","stationCode":12803,"stationName":"丁旗收费站","stationType":"匝道站","latitude":27.1582,"longitude":105.4105},{"companyCode":20,"companyName":"金云关","loadCode":90,"loadName":"机场高速","stationCode":23041,"stationName":"贵阳东收费站","stationType":"主线站(非省界)","latitude":26.521347,"longitude":106.80189},{"companyCode":22,"companyName":"贵阳环城","loadCode":82,"loadName":"西南环","stationCode":20993,"stationName":"白云收费站","stationType":"匝道站","latitude":26.697336,"longitude":106.614787},{"companyCode":22,"companyName":"贵阳环城","loadCode":82,"loadName":"西南环","stationCode":20994,"stationName":"观山湖收费站","stationType":"匝道站","latitude":26.632525,"longitude":106.584891},{"companyCode":22,"companyName":"贵阳环城","loadCode":82,"loadName":"西南环","stationCode":20995,"stationName":"经开收费站","stationType":"匝道站","latitude":26.466152,"longitude":106.691061},{"companyCode":22,"companyName":"贵阳环城","loadCode":82,"loadName":"西南环","stationCode":20997,"stationName":"花溪收费站","stationType":"匝道站","latitude":26.465498,"longitude":106.646946},{"companyCode":22,"companyName":"贵阳高新","loadCode":82,"loadName":"西南环","stationCode":20996,"stationName":"贵阳高新收费站","stationType":"匝道站","latitude":26.421352,"longitude":106.394871},{"companyCode":22,"companyName":"贵阳环城","loadCode":83,"loadName":"南环线","stationCode":21249,"stationName":"石板哨收费站","stationType":"匝道站","latitude":26.469975,"longitude":106.612683},{"companyCode":22,"companyName":"贵阳环城","loadCode":83,"loadName":"南环线","stationCode":21250,"stationName":"党武收费站","stationType":"匝道站","latitude":26.402923,"longitude":106.602752},{"companyCode":22,"companyName":"贵阳环城","loadCode":83,"loadName":"南环线","stationCode":21251,"stationName":"桐木岭收费站","stationType":"匝道站","latitude":26.378881,"longitude":106.676402},{"companyCode":22,"companyName":"贵阳环城","loadCode":83,"loadName":"南环线","stationCode":21252,"stationName":"孟关收费站","stationType":"匝道站","latitude":26.406989,"longitude":106.745551},{"companyCode":22,"companyName":"贵阳环城","loadCode":83,"loadName":"南环线","stationCode":21253,"stationName":"牛郎关收费站","stationType":"匝道站","latitude":26.471688,"longitude":106.740859},{"companyCode":22,"companyName":"贵阳环城","loadCode":83,"loadName":"南环线","stationCode":21254,"stationName":"大学城收费站","stationType":"匝道站","latitude":26.372269,"longitude":106.634735},{"companyCode":304,"companyName":"贵阳旅文投","loadCode":83,"loadName":"南环线","stationCode":21255,"stationName":"天河潭收费站","stationType":"匝道站","latitude":26.263624,"longitude":106.352101},{"companyCode":303,"companyName":"交建集团桥梁公司","loadCode":51,"loadName":"瓮马","stationCode":13057,"stationName":"瓮安南收费站","stationType":"匝道站","latitude":27.137,"longitude":107.2717},{"companyCode":303,"companyName":"交建集团桥梁公司","loadCode":51,"loadName":"瓮马","stationCode":13058,"stationName":"平定营收费站","stationType":"匝道站","latitude":26.5857,"longitude":107.2534},{"companyCode":303,"companyName":"交建集团桥梁公司","loadCode":51,"loadName":"瓮马","stationCode":13059,"stationName":"牛场收费站","stationType":"匝道站","latitude":26.5359,"longitude":107.271},{"companyCode":303,"companyName":"交建集团桥梁公司","loadCode":51,"loadName":"瓮马","stationCode":13060,"stationName":"福泉北收费站","stationType":"匝道站","latitude":26.4637,"longitude":107.2919},{"companyCode":303,"companyName":"交建集团桥梁公司","loadCode":51,"loadName":"瓮马","stationCode":13061,"stationName":"福泉东收费站","stationType":"匝道站","latitude":26.414,"longitude":107.3125},{"companyCode":303,"companyName":"交建集团桥梁公司","loadCode":51,"loadName":"瓮马","stationCode":13062,"stationName":"福泉南收费站","stationType":"匝道站","latitude":26.383,"longitude":107.3332},{"companyCode":44,"companyName":"松铜公司","loadCode":52,"loadName":"松铜","stationCode":13313,"stationName":"两河口收费站","stationType":"省界站","latitude":28.253106,"longitude":109.081833},{"companyCode":44,"companyName":"松铜公司","loadCode":52,"loadName":"松铜","stationCode":13314,"stationName":"黄板收费站","stationType":"匝道站","latitude":28.242023,"longitude":109.100642},{"companyCode":44,"companyName":"松铜公司","loadCode":52,"loadName":"松铜","stationCode":13315,"stationName":"松桃北收费站","stationType":"匝道站","latitude":28.174769,"longitude":109.165962},{"companyCode":44,"companyName":"松铜公司","loadCode":52,"loadName":"松铜","stationCode":13316,"stationName":"松桃南收费站","stationType":"匝道站","latitude":28.119517,"longitude":109.178234},{"companyCode":44,"companyName":"松铜公司","loadCode":52,"loadName":"松铜","stationCode":13317,"stationName":"苗王城西收费站","stationType":"匝道站","latitude":27.992411,"longitude":109.252331},{"companyCode":10,"companyName":"贵州高速集团","loadCode":53,"loadName":"惠罗","stationCode":13569,"stationName":"惠水南收费站","stationType":"匝道站","latitude":26.0149,"longitude":106.3629},{"companyCode":10,"companyName":"贵州高速集团","loadCode":53,"loadName":"惠罗","stationCode":13570,"stationName":"断杉收费站","stationType":"匝道站","latitude":25.5008,"longitude":106.3421},{"companyCode":10,"companyName":"贵州高速集团","loadCode":53,"loadName":"惠罗","stationCode":13571,"stationName":"边阳收费站","stationType":"匝道站","latitude":25.3904,"longitude":106.3729},{"companyCode":10,"companyName":"贵州高速集团","loadCode":53,"loadName":"惠罗","stationCode":13572,"stationName":"罗甸北收费站","stationType":"匝道站","latitude":25.3041,"longitude":106.3956},{"companyCode":10,"companyName":"贵州高速集团","loadCode":53,"loadName":"惠罗","stationCode":13573,"stationName":"罗甸收费站","stationType":"匝道站","latitude":25.251,"longitude":106.4338},{"companyCode":10,"companyName":"贵州高速集团","loadCode":53,"loadName":"惠罗","stationCode":13574,"stationName":"罗甸南收费站","stationType":"匝道站","latitude":25.2106,"longitude":106.3936},{"companyCode":10,"companyName":"贵州高速集团","loadCode":53,"loadName":"惠罗","stationCode":13575,"stationName":"罗妥收费站","stationType":"匝道站","latitude":25.139,"longitude":106.4045},{"companyCode":301,"companyName":"交建集团直属路段","loadCode":58,"loadName":"黔大","stationCode":14849,"stationName":"林泉收费站","stationType":"匝道站","latitude":27.057547,"longitude":105.869493},{"companyCode":301,"companyName":"交建集团直属路段","loadCode":58,"loadName":"黔大","stationCode":14850,"stationName":"百里杜鹃西收费站","stationType":"匝道站","latitude":27.111649,"longitude":105.760405},{"companyCode":301,"companyName":"交建集团直属路段","loadCode":58,"loadName":"黔大","stationCode":14851,"stationName":"六龙收费站","stationType":"匝道站","latitude":27.178073,"longitude":105.679736},{"companyCode":301,"companyName":"交建集团直属路段","loadCode":59,"loadName":"息黔","stationCode":15105,"stationName":"黔西收费站","stationType":"匝道站","latitude":27.019543,"longitude":105.992351},{"companyCode":301,"companyName":"交建集团直属路段","loadCode":59,"loadName":"息黔","stationCode":15106,"stationName":"黔西东收费站","stationType":"匝道站","latitude":27.068179,"longitude":106.117565},{"companyCode":301,"companyName":"交建集团直属路段","loadCode":59,"loadName":"息黔","stationCode":15107,"stationName":"协和收费站","stationType":"匝道站","latitude":27.033446,"longitude":106.23563},{"companyCode":301,"companyName":"交建集团直属路段","loadCode":59,"loadName":"息黔","stationCode":15108,"stationName":"太来收费站","stationType":"匝道站","latitude":27.047594,"longitude":106.335234},{"companyCode":301,"companyName":"交建集团直属路段","loadCode":59,"loadName":"息黔","stationCode":15109,"stationName":"六桶收费站","stationType":"匝道站","latitude":27.093896,"longitude":106.443317},{"companyCode":301,"companyName":"交建集团直属路段","loadCode":59,"loadName":"息黔","stationCode":15110,"stationName":"九庄收费站","stationType":"匝道站","latitude":27.118879,"longitude":106.538931},{"companyCode":301,"companyName":"交建集团直属路段","loadCode":59,"loadName":"息黔","stationCode":15111,"stationName":"鹿窝收费站","stationType":"匝道站","latitude":27.145194,"longitude":106.577526},{"companyCode":301,"companyName":"交建集团直属路段","loadCode":59,"loadName":"息黔","stationCode":15112,"stationName":"流长收费站","stationType":"匝道站","latitude":27.188769,"longitude":106.650669},{"companyCode":301,"companyName":"交建集团直属路段","loadCode":59,"loadName":"开息","stationCode":15113,"stationName":"温泉收费站","stationType":"匝道站","latitude":27.199682,"longitude":106.832161},{"companyCode":10,"companyName":"贵州高速集团","loadCode":64,"loadName":"凯羊","stationCode":16385,"stationName":"凯里南收费站","stationType":"匝道站","latitude":26.521667,"longitude":107.910833},{"companyCode":10,"companyName":"贵州高速集团","loadCode":64,"loadName":"凯羊","stationCode":16386,"stationName":"青曼收费站","stationType":"匝道站","latitude":26.459722,"longitude":107.884444},{"companyCode":10,"companyName":"贵州高速集团","loadCode":64,"loadName":"凯羊","stationCode":16387,"stationName":"丹寨收费站","stationType":"匝道站","latitude":26.209167,"longitude":107.818056},{"companyCode":10,"companyName":"贵州高速集团","loadCode":64,"loadName":"凯羊","stationCode":16388,"stationName":"兴仁收费站","stationType":"匝道站","latitude":26.3375,"longitude":107.818611},{"companyCode":10,"companyName":"贵州高速集团","loadCode":65,"loadName":"余凯","stationCode":16648,"stationName":"凯里北收费站","stationType":"匝道站","latitude":26.621824,"longitude":107.905592},{"companyCode":10,"companyName":"贵州高速集团","loadCode":65,"loadName":"余凯","stationCode":16647,"stationName":"重安收费站","stationType":"匝道站","latitude":26.4531,"longitude":107.5421},{"companyCode":10,"companyName":"贵州高速集团","loadCode":65,"loadName":"余凯","stationCode":16646,"stationName":"黄平南收费站","stationType":"匝道站","latitude":26.5331,"longitude":107.5348},{"companyCode":10,"companyName":"贵州高速集团","loadCode":65,"loadName":"余凯","stationCode":16645,"stationName":"黄平北收费站","stationType":"匝道站","latitude":26.5746,"longitude":107.5324},{"companyCode":10,"companyName":"贵州高速集团","loadCode":65,"loadName":"余凯","stationCode":16644,"stationName":"牛大场收费站","stationType":"匝道站","latitude":27.848,"longitude":107.559},{"companyCode":10,"companyName":"贵州高速集团","loadCode":65,"loadName":"余凯","stationCode":16643,"stationName":"余庆收费站","stationType":"匝道站","latitude":27.1256,"longitude":107.5244},{"companyCode":10,"companyName":"贵州高速集团","loadCode":65,"loadName":"施黄","stationCode":16641,"stationName":"凯里黄平机场收费站","stationType":"匝道站","latitude":26.5833,"longitude":107.5848},{"companyCode":75,"companyName":"三施公司","loadCode":65,"loadName":"三施","stationCode":16649,"stationName":"施秉西收费站","stationType":"匝道站","latitude":26.989067,"longitude":108.079014},{"companyCode":75,"companyName":"三施公司","loadCode":96,"loadName":"三施","stationCode":24577,"stationName":"三穗德明收费站","stationType":"匝道站","latitude":26.945328,"longitude":108.607256},{"companyCode":75,"companyName":"三施公司","loadCode":96,"loadName":"三施","stationCode":24578,"stationName":"施秉东收费站","stationType":"匝道站","latitude":27.070753,"longitude":108.181522},{"companyCode":38,"companyName":"遵高投","loadCode":28,"loadName":"遵义北环","stationCode":7169,"stationName":"海龙收费站","stationType":"匝道站","latitude":27.725871,"longitude":106.823841},{"companyCode":38,"companyName":"遵高投","loadCode":28,"loadName":"遵义北环","stationCode":7170,"stationName":"乐理收费站","stationType":"匝道站","latitude":27.616864,"longitude":106.751998},{"companyCode":10,"companyName":"贵州高速集团","loadCode":54,"loadName":"毕都","stationCode":13825,"stationName":"朱昌收费站","stationType":"匝道站","latitude":27.186944,"longitude":105.312778},{"companyCode":10,"companyName":"贵州高速集团","loadCode":54,"loadName":"毕都","stationCode":13826,"stationName":"厍东关收费站","stationType":"匝道站","latitude":27.054722,"longitude":105.243889},{"companyCode":10,"companyName":"贵州高速集团","loadCode":54,"loadName":"毕都","stationCode":13827,"stationName":"六盘水东收费站","stationType":"匝道站","latitude":26.527716,"longitude":104.964794},{"companyCode":10,"companyName":"贵州高速集团","loadCode":54,"loadName":"毕都","stationCode":13828,"stationName":"九洞天收费站","stationType":"匝道站","latitude":26.925556,"longitude":105.261389},{"companyCode":10,"companyName":"贵州高速集团","loadCode":54,"loadName":"毕都","stationCode":13829,"stationName":"巴雍收费站","stationType":"匝道站","latitude":26.793889,"longitude":105.223611},{"companyCode":10,"companyName":"贵州高速集团","loadCode":54,"loadName":"毕都","stationCode":13830,"stationName":"以角收费站","stationType":"匝道站","latitude":26.686944,"longitude":105.095278},{"companyCode":10,"companyName":"贵州高速集团","loadCode":54,"loadName":"毕都","stationCode":13831,"stationName":"三岔河收费站","stationType":"匝道站","latitude":26.637443,"longitude":105.064702},{"companyCode":10,"companyName":"贵州高速集团","loadCode":54,"loadName":"毕都","stationCode":13832,"stationName":"水城经开区收费站","stationType":"匝道站","latitude":26.577284,"longitude":105.028842},{"companyCode":10,"companyName":"贵州高速集团","loadCode":54,"loadName":"毕都","stationCode":13833,"stationName":"六盘水南收费站","stationType":"匝道站","latitude":26.536456,"longitude":104.906215},{"companyCode":10,"companyName":"贵州高速集团","loadCode":54,"loadName":"毕都","stationCode":13834,"stationName":"玉舍收费站","stationType":"匝道站","latitude":26.485907,"longitude":104.802195},{"companyCode":10,"companyName":"贵州高速集团","loadCode":54,"loadName":"毕都","stationCode":13835,"stationName":"俄脚收费站","stationType":"匝道站","latitude":26.435105,"longitude":104.785841},{"companyCode":10,"companyName":"贵州高速集团","loadCode":54,"loadName":"毕都","stationCode":13836,"stationName":"都格收费站","stationType":"省界站","latitude":26.2558,"longitude":104.4502},{"companyCode":10,"companyName":"贵州高速集团","loadCode":55,"loadName":"六六","stationCode":14081,"stationName":"滥坝收费站","stationType":"匝道站","latitude":26.522904,"longitude":105.061631},{"companyCode":10,"companyName":"贵州高速集团","loadCode":55,"loadName":"六六","stationCode":14082,"stationName":"陡箐收费站","stationType":"匝道站","latitude":26.458218,"longitude":105.158593},{"companyCode":10,"companyName":"贵州高速集团","loadCode":55,"loadName":"六六","stationCode":14083,"stationName":"新场收费站","stationType":"匝道站","latitude":26.391867,"longitude":105.249002},{"companyCode":10,"companyName":"贵州高速集团","loadCode":55,"loadName":"六六","stationCode":14084,"stationName":"岩脚收费站","stationType":"匝道站","latitude":26.321494,"longitude":105.391466},{"companyCode":10,"companyName":"贵州高速集团","loadCode":55,"loadName":"六六","stationCode":14085,"stationName":"六枝西收费站","stationType":"匝道站","latitude":26.262187,"longitude":105.426752},{"companyCode":10,"companyName":"贵州高速集团","loadCode":60,"loadName":"驾荔","stationCode":15361,"stationName":"荔波东收费站","stationType":"匝道站","latitude":25.1819,"longitude":107.4028},{"companyCode":10,"companyName":"贵州高速集团","loadCode":61,"loadName":"三黎","stationCode":15617,"stationName":"瓦寨收费站","stationType":"匝道站","latitude":26.564,"longitude":108.4722},{"companyCode":10,"companyName":"贵州高速集团","loadCode":61,"loadName":"三黎","stationCode":15619,"stationName":"桐林收费站","stationType":"匝道站","latitude":26.5601,"longitude":108.5058},{"companyCode":10,"companyName":"贵州高速集团","loadCode":61,"loadName":"三黎","stationCode":15618,"stationName":"款场收费站","stationType":"匝道站","latitude":26.5607,"longitude":109.0201},{"companyCode":10,"companyName":"贵州高速集团","loadCode":61,"loadName":"三黎","stationCode":15620,"stationName":"天柱收费站","stationType":"匝道站","latitude":26.5551,"longitude":109.1123},{"companyCode":10,"companyName":"贵州高速集团","loadCode":61,"loadName":"三黎","stationCode":15621,"stationName":"高酿收费站","stationType":"匝道站","latitude":26.4954,"longitude":109.1016},{"companyCode":10,"companyName":"贵州高速集团","loadCode":61,"loadName":"三黎","stationCode":15622,"stationName":"锦屏收费站","stationType":"匝道站","latitude":26.672384,"longitude":109.182059},{"companyCode":10,"companyName":"贵州高速集团","loadCode":61,"loadName":"三黎","stationCode":15623,"stationName":"敦寨收费站","stationType":"匝道站","latitude":26.517462,"longitude":109.260046},{"companyCode":10,"companyName":"贵州高速集团","loadCode":61,"loadName":"三黎","stationCode":15624,"stationName":"新化收费站","stationType":"匝道站","latitude":26.409049,"longitude":109.155859},{"companyCode":10,"companyName":"贵州高速集团","loadCode":62,"loadName":"清织","stationCode":15873,"stationName":"普翁收费站","stationType":"匝道站","latitude":26.409,"longitude":105.5714},{"companyCode":10,"companyName":"贵州高速集团","loadCode":62,"loadName":"清织","stationCode":15874,"stationName":"织金洞南收费站","stationType":"匝道站","latitude":26.4249,"longitude":105.5149},{"companyCode":10,"companyName":"贵州高速集团","loadCode":62,"loadName":"清织","stationCode":15875,"stationName":"织金收费站","stationType":"匝道站","latitude":26.4233,"longitude":105.4947},{"companyCode":10,"companyName":"贵州高速集团","loadCode":62,"loadName":"清织","stationCode":15876,"stationName":"马场收费站","stationType":"匝道站","latitude":26.3758,"longitude":106.0426},{"companyCode":10,"companyName":"贵州高速集团","loadCode":62,"loadName":"清织","stationCode":15878,"stationName":"梨倭收费站","stationType":"匝道站","latitude":26.3715,"longitude":106.1555},{"companyCode":10,"companyName":"贵州高速集团","loadCode":63,"loadName":"织纳","stationCode":16129,"stationName":"以那收费站","stationType":"匝道站","latitude":26.804167,"longitude":105.700278},{"companyCode":10,"companyName":"贵州高速集团","loadCode":63,"loadName":"织纳","stationCode":16130,"stationName":"老凹坝收费站","stationType":"匝道站","latitude":26.8375,"longitude":105.544444},{"companyCode":10,"companyName":"贵州高速集团","loadCode":63,"loadName":"织纳","stationCode":16131,"stationName":"纳雍收费站","stationType":"匝道站","latitude":26.804722,"longitude":105.408611},{"companyCode":10,"companyName":"贵州高速集团","loadCode":63,"loadName":"织纳","stationCode":16132,"stationName":"龙场收费站（织纳）","stationType":"匝道站","latitude":26.871389,"longitude":105.2825},{"companyCode":10,"companyName":"贵州高速集团","loadCode":56,"loadName":"毕生","stationCode":14337,"stationName":"毕节收费站","stationType":"匝道站","latitude":27.260278,"longitude":105.371169},{"companyCode":10,"companyName":"贵州高速集团","loadCode":56,"loadName":"毕生","stationCode":14338,"stationName":"毕节北收费站","stationType":"匝道站","latitude":27.364167,"longitude":105.400556},{"companyCode":10,"companyName":"贵州高速集团","loadCode":56,"loadName":"毕生","stationCode":14339,"stationName":"燕子口收费站","stationType":"匝道站","latitude":27.506389,"longitude":105.41505},{"companyCode":10,"companyName":"贵州高速集团","loadCode":56,"loadName":"毕生","stationCode":14340,"stationName":"林口收费站","stationType":"匝道站","latitude":27.630833,"longitude":105.361944},{"companyCode":10,"companyName":"贵州高速集团","loadCode":56,"loadName":"毕生","stationCode":14341,"stationName":"生机收费站","stationType":"省界站","latitude":27.764325,"longitude":105.471253},{"companyCode":10,"companyName":"贵州高速集团","loadCode":56,"loadName":"毕生","stationCode":14342,"stationName":"金银山收费站","stationType":"匝道站","latitude":27.2746,"longitude":105.2338},{"companyCode":10,"companyName":"贵州高速集团","loadCode":72,"loadName":"尖小","stationCode":18433,"stationName":"综保收费站","stationType":"匝道站","latitude":26.4114,"longitude":106.4306},{"companyCode":10,"companyName":"贵州高速集团","loadCode":72,"loadName":"尖小","stationCode":18434,"stationName":"火石坡收费站","stationType":"匝道站","latitude":26.6777,"longitude":106.7572},{"companyCode":10,"companyName":"贵州高速集团","loadCode":72,"loadName":"尖小","stationCode":18435,"stationName":"定扒收费站","stationType":"匝道站","latitude":26.4128,"longitude":106.5042},{"companyCode":10,"companyName":"贵州高速集团","loadCode":72,"loadName":"尖小","stationCode":18436,"stationName":"永乐收费站","stationType":"匝道站","latitude":26.3406,"longitude":106.5058},{"companyCode":10,"companyName":"贵州高速集团","loadCode":75,"loadName":"贵遵复线","stationCode":19201,"stationName":"竹林收费站","stationType":"匝道站","latitude":26.45,"longitude":106.504},{"companyCode":10,"companyName":"贵州高速集团","loadCode":75,"loadName":"贵遵复线","stationCode":19202,"stationName":"羊昌收费站","stationType":"匝道站","latitude":26.8309,"longitude":106.88706},{"companyCode":10,"companyName":"贵州高速集团","loadCode":75,"loadName":"贵遵复线","stationCode":19203,"stationName":"十里画廊收费站","stationType":"匝道站","latitude":26.973485,"longitude":106.953277},{"companyCode":10,"companyName":"贵州高速集团","loadCode":75,"loadName":"贵遵复线","stationCode":19204,"stationName":"开阳南收费站","stationType":"匝道站","latitude":27.14897,"longitude":107.15729},{"companyCode":10,"companyName":"贵州高速集团","loadCode":75,"loadName":"贵遵复线","stationCode":19205,"stationName":"开阳西收费站","stationType":"匝道站","latitude":27.075634,"longitude":106.912078},{"companyCode":10,"companyName":"贵州高速集团","loadCode":75,"loadName":"贵遵复线","stationCode":19206,"stationName":"楠木渡收费站","stationType":"匝道站","latitude":27.34473,"longitude":107.00525},{"companyCode":10,"companyName":"贵州高速集团","loadCode":75,"loadName":"贵遵复线","stationCode":19207,"stationName":"尚嵇收费站","stationType":"匝道站","latitude":27.389317,"longitude":106.995093},{"companyCode":10,"companyName":"贵州高速集团","loadCode":75,"loadName":"贵遵复线","stationCode":19208,"stationName":"龙坪收费站","stationType":"匝道站","latitude":27.555929,"longitude":107.023489},{"companyCode":10,"companyName":"贵州高速集团","loadCode":75,"loadName":"贵遵复线","stationCode":19209,"stationName":"喇叭收费站","stationType":"匝道站","latitude":27.60066,"longitude":107.091148},{"companyCode":10,"companyName":"贵州高速集团","loadCode":71,"loadName":"凯雷","stationCode":18177,"stationName":"西江收费站","stationType":"匝道站","latitude":26.487222,"longitude":108.133611},{"companyCode":10,"companyName":"贵州高速集团","loadCode":71,"loadName":"凯雷","stationCode":18178,"stationName":"黄里收费站","stationType":"匝道站","latitude":26.428889,"longitude":108.136111},{"companyCode":10,"companyName":"贵州高速集团","loadCode":71,"loadName":"凯雷","stationCode":18179,"stationName":"雷山收费站","stationType":"匝道站","latitude":26.391111,"longitude":108.109167},{"companyCode":56,"companyName":"中交贵瓮","loadCode":66,"loadName":"贵瓮","stationCode":16897,"stationName":"百宜收费站","stationType":"匝道站","latitude":26.839151,"longitude":106.96019},{"companyCode":56,"companyName":"中交贵瓮","loadCode":66,"loadName":"贵瓮","stationCode":16898,"stationName":"龙岗收费站","stationType":"匝道站","latitude":26.900294,"longitude":107.084286},{"companyCode":56,"companyName":"中交贵瓮","loadCode":66,"loadName":"贵瓮","stationCode":16899,"stationName":"毛云收费站","stationType":"匝道站","latitude":26.984154,"longitude":107.165627},{"companyCode":56,"companyName":"中交贵瓮","loadCode":66,"loadName":"贵瓮","stationCode":16900,"stationName":"瓮安西收费站","stationType":"匝道站","latitude":27.047405,"longitude":107.311447},{"companyCode":305,"companyName":"中交道安","loadCode":76,"loadName":"道瓮","stationCode":19457,"stationName":"大磏收费站","stationType":"省界站","latitude":28.918137,"longitude":107.479093},{"companyCode":305,"companyName":"中交道安","loadCode":76,"loadName":"道瓮","stationCode":19463,"stationName":"傩城收费站","stationType":"匝道站","latitude":28.953496,"longitude":107.45317},{"companyCode":305,"companyName":"中交道安","loadCode":76,"loadName":"道瓮","stationCode":19458,"stationName":"道真北收费站","stationType":"匝道站","latitude":28.912426,"longitude":107.47412},{"companyCode":305,"companyName":"中交道安","loadCode":76,"loadName":"道瓮","stationCode":19459,"stationName":"道真收费站","stationType":"匝道站","latitude":28.846697,"longitude":107.569982},{"companyCode":305,"companyName":"中交道安","loadCode":76,"loadName":"道瓮","stationCode":19460,"stationName":"三江收费站","stationType":"匝道站","latitude":28.690911,"longitude":107.488712},{"companyCode":305,"companyName":"中交道安","loadCode":76,"loadName":"道瓮","stationCode":19461,"stationName":"正安北收费站","stationType":"匝道站","latitude":28.62618,"longitude":107.448045},{"companyCode":305,"companyName":"中交道安","loadCode":76,"loadName":"道瓮","stationCode":19462,"stationName":"正安收费站","stationType":"匝道站","latitude":28.551196,"longitude":107.457546},{"companyCode":305,"companyName":"中交道安","loadCode":77,"loadName":"道瓮","stationCode":19713,"stationName":"和平收费站","stationType":"匝道站","latitude":28.296139,"longitude":107.420759},{"companyCode":305,"companyName":"中交道安","loadCode":77,"loadName":"道瓮","stationCode":19714,"stationName":"坪乐收费站","stationType":"匝道站","latitude":28.21079,"longitude":107.451099},{"companyCode":305,"companyName":"中交道安","loadCode":77,"loadName":"道瓮","stationCode":19715,"stationName":"西河收费站","stationType":"匝道站","latitude":28.142002,"longitude":107.495363},{"companyCode":305,"companyName":"中交道安","loadCode":77,"loadName":"道瓮","stationCode":19716,"stationName":"洗马收费站","stationType":"匝道站","latitude":27.963149,"longitude":107.504345},{"companyCode":305,"companyName":"中交道安","loadCode":67,"loadName":"道瓮","stationCode":17153,"stationName":"湄潭东收费站","stationType":"匝道站","latitude":27.752485,"longitude":107.514729},{"companyCode":305,"companyName":"中交道安","loadCode":67,"loadName":"道瓮","stationCode":17154,"stationName":"抄乐收费站","stationType":"匝道站","latitude":27.64783,"longitude":107.536908},{"companyCode":305,"companyName":"中交道安","loadCode":67,"loadName":"道瓮","stationCode":17155,"stationName":"龙家收费站","stationType":"匝道站","latitude":27.522815,"longitude":107.529452},{"companyCode":305,"companyName":"中交道安","loadCode":67,"loadName":"道瓮","stationCode":17156,"stationName":"港口收费站","stationType":"匝道站","latitude":27.349053,"longitude":107.489908},{"companyCode":305,"companyName":"中交道安","loadCode":67,"loadName":"道瓮","stationCode":17157,"stationName":"瓮安北收费站","stationType":"匝道站","latitude":27.28971,"longitude":107.463904},{"companyCode":54,"companyName":"中交安江","loadCode":68,"loadName":"安江","stationCode":17409,"stationName":"闵孝收费站","stationType":"匝道站","latitude":27.682878,"longitude":108.63516},{"companyCode":54,"companyName":"中交安江","loadCode":68,"loadName":"安江","stationCode":17410,"stationName":"龙塘坳洋溪收费站","stationType":"匝道站","latitude":27.598803,"longitude":108.517779},{"companyCode":54,"companyName":"中交安江","loadCode":68,"loadName":"安江","stationCode":17411,"stationName":"石固收费站","stationType":"匝道站","latitude":27.559062,"longitude":108.440111},{"companyCode":54,"companyName":"中交安江","loadCode":68,"loadName":"安江","stationCode":17412,"stationName":"石阡南收费站","stationType":"匝道站","latitude":27.496128,"longitude":108.244112},{"companyCode":54,"companyName":"中交安江","loadCode":68,"loadName":"安江","stationCode":17413,"stationName":"佛顶山东收费站","stationType":"匝道站","latitude":27.429067,"longitude":108.159262},{"companyCode":54,"companyName":"中交安江","loadCode":68,"loadName":"安江","stationCode":17414,"stationName":"佛顶山西收费站","stationType":"匝道站","latitude":27.343397,"longitude":107.996355},{"companyCode":54,"companyName":"中交安江","loadCode":68,"loadName":"安江","stationCode":17415,"stationName":"余庆东收费站","stationType":"匝道站","latitude":27.241214,"longitude":107.906586},{"companyCode":54,"companyName":"中交安江","loadCode":68,"loadName":"安江","stationCode":17416,"stationName":"黄平纸房收费站","stationType":"匝道站","latitude":27.182073,"longitude":107.736244},{"companyCode":54,"companyName":"中交安江","loadCode":68,"loadName":"安江","stationCode":17417,"stationName":"瓮安东收费站","stationType":"匝道站","latitude":27.075614,"longitude":107.344618},{"companyCode":54,"companyName":"中交安江","loadCode":68,"loadName":"安江","stationCode":17418,"stationName":"瓮安收费站","stationType":"匝道站","latitude":27.117857,"longitude":107.493661},{"companyCode":57,"companyName":"中交沿德","loadCode":74,"loadName":"沿德","stationCode":18945,"stationName":"沙子收费站","stationType":"省界站","latitude":28.644373,"longitude":108.606547},{"companyCode":57,"companyName":"中交沿德","loadCode":74,"loadName":"沿德","stationCode":18946,"stationName":"沿河东收费站","stationType":"匝道站","latitude":28.569397,"longitude":108.557491},{"companyCode":57,"companyName":"中交沿德","loadCode":74,"loadName":"沿德","stationCode":18947,"stationName":"沿河收费站","stationType":"匝道站","latitude":28.536824,"longitude":108.484611},{"companyCode":57,"companyName":"中交沿德","loadCode":74,"loadName":"沿德","stationCode":18948,"stationName":"官舟收费站","stationType":"匝道站","latitude":28.551654,"longitude":108.34137},{"companyCode":57,"companyName":"中交沿德","loadCode":74,"loadName":"沿德","stationCode":18949,"stationName":"德江北收费站","stationType":"匝道站","latitude":28.353982,"longitude":108.173436},{"companyCode":57,"companyName":"中交沿德","loadCode":74,"loadName":"沿德","stationCode":18950,"stationName":"德江南收费站","stationType":"匝道站","latitude":28.216237,"longitude":108.185515},{"companyCode":57,"companyName":"中交沿德","loadCode":74,"loadName":"沿德","stationCode":18951,"stationName":"合兴收费站","stationType":"匝道站","latitude":28.11165,"longitude":108.079492},{"companyCode":24,"companyName":"省公路开发公司","loadCode":57,"loadName":"务正","stationCode":14593,"stationName":"务川收费站","stationType":"匝道站","latitude":28.5527,"longitude":107.8716},{"companyCode":24,"companyName":"省公路开发公司","loadCode":57,"loadName":"务正","stationCode":14594,"stationName":"涪洋收费站","stationType":"匝道站","latitude":28.487,"longitude":107.6898},{"companyCode":24,"companyName":"省公路开发公司","loadCode":57,"loadName":"务正","stationCode":14595,"stationName":"芙蓉江收费站","stationType":"匝道站","latitude":28.5219,"longitude":107.5068},{"companyCode":24,"companyName":"省公路开发公司","loadCode":69,"loadName":"独平","stationCode":17665,"stationName":"平塘东收费站","stationType":"匝道站","latitude":25.847911,"longitude":107.330071},{"companyCode":24,"companyName":"省公路开发公司","loadCode":93,"loadName":"平罗","stationCode":23809,"stationName":"平塘西收费站","stationType":"匝道站","latitude":25.850509,"longitude":107.328158},{"companyCode":24,"companyName":"省公路开发公司","loadCode":93,"loadName":"平罗","stationCode":23810,"stationName":"牙舟收费站","stationType":"匝道站","latitude":25.50777,"longitude":107.08021},{"companyCode":24,"companyName":"省公路开发公司","loadCode":93,"loadName":"平罗","stationCode":23812,"stationName":"通州收费站","stationType":"匝道站","latitude":0,"longitude":0},{"companyCode":24,"companyName":"省公路开发公司","loadCode":93,"loadName":"平罗","stationCode":23813,"stationName":"天眼收费站","stationType":"匝道站","latitude":0,"longitude":0},{"companyCode":24,"companyName":"省公路开发公司","loadCode":93,"loadName":"平罗","stationCode":23814,"stationName":"大小井收费站","stationType":"匝道站","latitude":28.232059,"longitude":48.245615},{"companyCode":24,"companyName":"省公路开发公司","loadCode":93,"loadName":"平罗","stationCode":23815,"stationName":"罗甸东收费站","stationType":"匝道站","latitude":28.18883,"longitude":47.702947},{"companyCode":10,"companyName":"贵州高速集团","loadCode":73,"loadName":"望安","stationCode":18689,"stationName":"望谟西收费站","stationType":"匝道站","latitude":25.185602,"longitude":106.07066},{"companyCode":10,"companyName":"贵州高速集团","loadCode":73,"loadName":"望安","stationCode":18690,"stationName":"岩架收费站","stationType":"匝道站","latitude":25.062278,"longitude":105.937164},{"companyCode":10,"companyName":"贵州高速集团","loadCode":73,"loadName":"望安","stationCode":18691,"stationName":"册亨收费站","stationType":"匝道站","latitude":24.983597,"longitude":105.768315},{"companyCode":10,"companyName":"贵州高速集团","loadCode":73,"loadName":"望安","stationCode":18692,"stationName":"丫他收费站","stationType":"匝道站","latitude":24.930189,"longitude":105.64639},{"companyCode":10,"companyName":"贵州高速集团","loadCode":91,"loadName":"罗望","stationCode":23297,"stationName":"逢亭收费站","stationType":"匝道站","latitude":25.342226,"longitude":106.567513},{"companyCode":10,"companyName":"贵州高速集团","loadCode":91,"loadName":"罗望","stationCode":23298,"stationName":"罗苏收费站","stationType":"匝道站","latitude":25.265121,"longitude":106.520599},{"companyCode":10,"companyName":"贵州高速集团","loadCode":91,"loadName":"罗望","stationCode":23302,"stationName":"望谟南收费站","stationType":"匝道站","latitude":25.854364,"longitude":106.132744},{"companyCode":10,"companyName":"贵州高速集团","loadCode":91,"loadName":"罗望","stationCode":23301,"stationName":"大观收费站","stationType":"匝道站","latitude":25.155996,"longitude":106.205682},{"companyCode":10,"companyName":"贵州高速集团","loadCode":91,"loadName":"罗望","stationCode":23300,"stationName":"纳夜收费站","stationType":"匝道站","latitude":25.101341,"longitude":106.213866},{"companyCode":10,"companyName":"贵州高速集团","loadCode":91,"loadName":"罗望","stationCode":23299,"stationName":"桑郎收费站","stationType":"匝道站","latitude":25.121003,"longitude":106.263421},{"companyCode":61,"companyName":"中交贵黔","loadCode":78,"loadName":"贵黔","stationCode":19970,"stationName":"新仁收费站","stationType":"匝道站","latitude":26.972651,"longitude":106.031547},{"companyCode":61,"companyName":"中交贵黔","loadCode":78,"loadName":"贵黔","stationCode":19972,"stationName":"王庄收费站","stationType":"匝道站","latitude":26.792191,"longitude":106.261714},{"companyCode":61,"companyName":"中交贵黔","loadCode":78,"loadName":"贵黔","stationCode":19973,"stationName":"卫城收费站","stationType":"匝道站","latitude":26.742714,"longitude":106.355143},{"companyCode":61,"companyName":"中交贵黔","loadCode":78,"loadName":"贵黔","stationCode":19974,"stationName":"麦格收费站","stationType":"匝道站","latitude":26.737824,"longitude":106.439408},{"companyCode":61,"companyName":"中交贵黔","loadCode":78,"loadName":"贵黔","stationCode":19977,"stationName":"大海子收费站","stationType":"匝道站","latitude":26.932313,"longitude":106.05538},{"companyCode":61,"companyName":"中交贵黔","loadCode":78,"loadName":"贵黔","stationCode":19971,"stationName":"东风湖收费站","stationType":"匝道站","latitude":26.792706,"longitude":106.261643},{"companyCode":61,"companyName":"中交贵黔","loadCode":78,"loadName":"贵黔","stationCode":19969,"stationName":"黔西坪子收费站","stationType":"匝道站","latitude":26.866196,"longitude":106.108009},{"companyCode":61,"companyName":"中交贵黔","loadCode":78,"loadName":"贵黔","stationCode":19978,"stationName":"贵州铝城收费站","stationType":"匝道站","latitude":26.45579,"longitude":106.173963},{"companyCode":52,"companyName":"盘兴公司","loadCode":70,"loadName":"盘兴","stationCode":17921,"stationName":"盘州东收费站","stationType":"匝道站","latitude":25.773498,"longitude":104.540175},{"companyCode":52,"companyName":"盘兴公司","loadCode":70,"loadName":"盘兴","stationCode":17922,"stationName":"丹霞收费站","stationType":"匝道站","latitude":25.651617,"longitude":104.588782},{"companyCode":52,"companyName":"盘兴公司","loadCode":70,"loadName":"盘兴","stationCode":17923,"stationName":"民主收费站","stationType":"匝道站","latitude":25.595682,"longitude":104.634392},{"companyCode":52,"companyName":"盘兴公司","loadCode":70,"loadName":"盘兴","stationCode":17924,"stationName":"大山收费站","stationType":"匝道站","latitude":25.540171,"longitude":104.690282},{"companyCode":52,"companyName":"盘兴公司","loadCode":70,"loadName":"盘兴","stationCode":17925,"stationName":"保田收费站","stationType":"匝道站","latitude":25.426548,"longitude":104.726923},{"companyCode":52,"companyName":"盘兴公司","loadCode":70,"loadName":"盘兴","stationCode":17926,"stationName":"普田收费站","stationType":"匝道站","latitude":25.371156,"longitude":104.789809},{"companyCode":52,"companyName":"盘兴公司","loadCode":70,"loadName":"盘兴","stationCode":17927,"stationName":"品甸收费站","stationType":"匝道站","latitude":25.287982,"longitude":104.815595},{"companyCode":52,"companyName":"盘兴公司","loadCode":70,"loadName":"盘兴","stationCode":17928,"stationName":"清水河收费站","stationType":"匝道站","latitude":25.233119,"longitude":104.850473},{"companyCode":24,"companyName":"省公路开发公司","loadCode":84,"loadName":"德务","stationCode":21505,"stationName":"德江收费站","stationType":"匝道站","latitude":28.276111,"longitude":108.101666},{"companyCode":24,"companyName":"省公路开发公司","loadCode":84,"loadName":"德务","stationCode":21506,"stationName":"楠木王收费站","stationType":"匝道站","latitude":28.204,"longitude":107.5428},{"companyCode":24,"companyName":"省公路开发公司","loadCode":84,"loadName":"德务","stationCode":21507,"stationName":"丰乐收费站","stationType":"匝道站","latitude":28.15,"longitude":107.5421},{"companyCode":24,"companyName":"省公路开发公司","loadCode":84,"loadName":"德务","stationCode":21508,"stationName":"务川南收费站","stationType":"匝道站","latitude":28.28,"longitude":107.53},{"companyCode":301,"companyName":"交建集团直属路段","loadCode":79,"loadName":"白黔","stationCode":20225,"stationName":"泮水西收费站","stationType":"匝道站","latitude":27.502538,"longitude":106.319614},{"companyCode":301,"companyName":"交建集团直属路段","loadCode":79,"loadName":"白黔","stationCode":20226,"stationName":"金沙南收费站","stationType":"匝道站","latitude":27.408634,"longitude":106.28552},{"companyCode":301,"companyName":"交建集团直属路段","loadCode":79,"loadName":"白黔","stationCode":20227,"stationName":"中建收费站","stationType":"匝道站","latitude":27.270336,"longitude":106.291666},{"companyCode":301,"companyName":"交建集团直属路段","loadCode":79,"loadName":"白黔","stationCode":20228,"stationName":"中坪收费站","stationType":"匝道站","latitude":27.202468,"longitude":106.272442},{"companyCode":301,"companyName":"交建集团直属路段","loadCode":79,"loadName":"白黔","stationCode":20229,"stationName":"永燊收费站","stationType":"匝道站","latitude":27.095509,"longitude":106.198489},{"companyCode":301,"companyName":"交建集团直属路段","loadCode":85,"loadName":"花安","stationCode":21761,"stationName":"燕楼收费站","stationType":"匝道站","latitude":26.331952,"longitude":106.614797},{"companyCode":301,"companyName":"交建集团直属路段","loadCode":85,"loadName":"花安","stationCode":21762,"stationName":"林卡收费站","stationType":"匝道站","latitude":26.328189,"longitude":106.559513},{"companyCode":301,"companyName":"交建集团直属路段","loadCode":85,"loadName":"花安","stationCode":21765,"stationName":"广顺东收费站","stationType":"匝道站","latitude":26.278903,"longitude":106.437034},{"companyCode":301,"companyName":"交建集团直属路段","loadCode":85,"loadName":"花安","stationCode":21766,"stationName":"广顺北收费站","stationType":"匝道站","latitude":26.229844,"longitude":106.295722},{"companyCode":301,"companyName":"交建集团直属路段","loadCode":85,"loadName":"花安","stationCode":21767,"stationName":"东屯收费站","stationType":"匝道站","latitude":26.211711,"longitude":106.223191},{"companyCode":301,"companyName":"交建集团直属路段","loadCode":85,"loadName":"花安","stationCode":21768,"stationName":"宁谷收费站","stationType":"匝道站","latitude":26.209029,"longitude":105.997467},{"companyCode":301,"companyName":"交建集团直属路段","loadCode":85,"loadName":"花安","stationCode":21769,"stationName":"龙宫北收费站","stationType":"匝道站","latitude":26.182077,"longitude":105.955485},{"companyCode":301,"companyName":"交建集团直属路段","loadCode":87,"loadName":"毕龙","stationCode":22273,"stationName":"水箐收费站","stationType":"匝道站","latitude":27.356554,"longitude":105.15973},{"companyCode":301,"companyName":"交建集团直属路段","loadCode":87,"loadName":"毕龙","stationCode":22274,"stationName":"青场收费站","stationType":"匝道站","latitude":27.356169,"longitude":105.041225},{"companyCode":301,"companyName":"交建集团直属路段","loadCode":87,"loadName":"毕龙","stationCode":22275,"stationName":"二龙关收费站","stationType":"省界站","latitude":27.370446,"longitude":105.020708},{"companyCode":67,"companyName":"中铁建安紫公司","loadCode":86,"loadName":"安紫","stationCode":22017,"stationName":"云峰收费站","stationType":"匝道站","latitude":26.274065,"longitude":106.092985},{"companyCode":67,"companyName":"中铁建安紫公司","loadCode":86,"loadName":"安紫","stationCode":22018,"stationName":"旧州收费站","stationType":"匝道站","latitude":26.241293,"longitude":106.113542},{"companyCode":67,"companyName":"中铁建安紫公司","loadCode":86,"loadName":"安紫","stationCode":22019,"stationName":"双堡收费站","stationType":"匝道站","latitude":26.176995,"longitude":106.172558},{"companyCode":67,"companyName":"中铁建安紫公司","loadCode":86,"loadName":"安紫","stationCode":22020,"stationName":"杨武收费站","stationType":"匝道站","latitude":106.161929,"longitude":106.161929},{"companyCode":67,"companyName":"中铁建安紫公司","loadCode":86,"loadName":"安紫","stationCode":22021,"stationName":"紫云北收费站","stationType":"匝道站","latitude":25.940242,"longitude":106.173408},{"companyCode":72,"companyName":"江习古公司","loadCode":92,"loadName":"江习古","stationCode":23553,"stationName":"古鳛国北收费站","stationType":"省界站","latitude":28.665647,"longitude":106.542022},{"companyCode":72,"companyName":"江习古公司","loadCode":92,"loadName":"江习古","stationCode":23554,"stationName":"古鳛国收费站","stationType":"匝道站","latitude":28.581841,"longitude":106.551426},{"companyCode":72,"companyName":"江习古公司","loadCode":92,"loadName":"江习古","stationCode":23555,"stationName":"古鳛国南收费站","stationType":"匝道站","latitude":106.472456,"longitude":106.473211},{"companyCode":72,"companyName":"江习古公司","loadCode":92,"loadName":"江习古","stationCode":23556,"stationName":"良村收费站","stationType":"匝道站","latitude":28.38242,"longitude":106.382844},{"companyCode":72,"companyName":"江习古公司","loadCode":92,"loadName":"江习古","stationCode":23557,"stationName":"习水东收费站","stationType":"匝道站","latitude":28.328909,"longitude":106.280591},{"companyCode":72,"companyName":"江习古公司","loadCode":92,"loadName":"江习古","stationCode":23558,"stationName":"习酒收费站","stationType":"匝道站","latitude":28.172801,"longitude":106.180459},{"companyCode":72,"companyName":"江习古公司","loadCode":88,"loadName":"织普","stationCode":22529,"stationName":"织金北收费站","stationType":"匝道站","latitude":26.729872,"longitude":105.798883},{"companyCode":72,"companyName":"江习古公司","loadCode":88,"loadName":"织普","stationCode":22530,"stationName":"织金东收费站","stationType":"匝道站","latitude":26.646687,"longitude":105.782879},{"companyCode":72,"companyName":"江习古公司","loadCode":88,"loadName":"织普","stationCode":22531,"stationName":"珠藏收费站","stationType":"匝道站","latitude":26.554373,"longitude":105.736395},{"companyCode":72,"companyName":"江习古公司","loadCode":88,"loadName":"织普","stationCode":22532,"stationName":"黑土收费站","stationType":"匝道站","latitude":26.497757,"longitude":105.740859},{"companyCode":72,"companyName":"江习古公司","loadCode":88,"loadName":"织普","stationCode":22533,"stationName":"坪上收费站","stationType":"匝道站","latitude":26.416008,"longitude":105.757701},{"companyCode":76,"companyName":"黔大东清公司","loadCode":94,"loadName":"毕节绕城","stationCode":24066,"stationName":"金海湖东收费站","stationType":"匝道站","latitude":27.1636,"longitude":10.5349},{"companyCode":76,"companyName":"黔大东清公司","loadCode":94,"loadName":"毕节绕城","stationCode":24067,"stationName":"金海湖北收费站","stationType":"匝道站","latitude":27.2035,"longitude":105.2917},{"companyCode":76,"companyName":"黔大东清公司","loadCode":94,"loadName":"毕节绕城","stationCode":24068,"stationName":"大新桥收费站","stationType":"匝道站","latitude":27.338687,"longitude":105.297012},{"companyCode":76,"companyName":"黔大东清公司","loadCode":94,"loadName":"毕节绕城","stationCode":24069,"stationName":"茶亭收费站","stationType":"匝道站","latitude":27.289562,"longitude":105.261474},{"companyCode":10,"companyName":"贵州高速集团","loadCode":95,"loadName":"六威","stationCode":24321,"stationName":"月照机场收费站","stationType":"匝道站","latitude":26.355,"longitude":104.5711},{"companyCode":10,"companyName":"贵州高速集团","loadCode":95,"loadName":"六威","stationCode":24322,"stationName":"发箐收费站","stationType":"匝道站","latitude":26.3729,"longitude":140.556},{"companyCode":10,"companyName":"贵州高速集团","loadCode":95,"loadName":"六威","stationCode":24323,"stationName":"六盘水北收费站","stationType":"匝道站","latitude":26.3657,"longitude":104.5154},{"companyCode":10,"companyName":"贵州高速集团","loadCode":95,"loadName":"六威","stationCode":24324,"stationName":"六盘水西收费站","stationType":"匝道站","latitude":26.64388,"longitude":104.807575},{"companyCode":10,"companyName":"贵州高速集团","loadCode":95,"loadName":"六盘水市西联络线","stationCode":24325,"stationName":"野玉海西收费站","stationType":"匝道站","latitude":26.333,"longitude":104.4719},{"companyCode":10,"companyName":"贵州高速集团","loadCode":95,"loadName":"六威","stationCode":24335,"stationName":"中水主线站","stationType":"省界站","latitude":27.22726,"longitude":103.78021},{"companyCode":10,"companyName":"贵州高速集团","loadCode":95,"loadName":"六威","stationCode":24333,"stationName":"迤那收费站","stationType":"匝道站","latitude":27.08598,"longitude":103.85347},{"companyCode":10,"companyName":"贵州高速集团","loadCode":95,"loadName":"六威","stationCode":24332,"stationName":"观风海收费站","stationType":"匝道站","latitude":26.975215,"longitude":104.004431},{"companyCode":10,"companyName":"贵州高速集团","loadCode":95,"loadName":"六威","stationCode":24331,"stationName":"小海收费站","stationType":"匝道站","latitude":27.946414,"longitude":105.181481},{"companyCode":10,"companyName":"贵州高速集团","loadCode":95,"loadName":"六威","stationCode":24329,"stationName":"金钟收费站","stationType":"匝道站","latitude":26.771708,"longitude":104.423282},{"companyCode":10,"companyName":"贵州高速集团","loadCode":95,"loadName":"六威","stationCode":24328,"stationName":"东风收费站","stationType":"匝道站","latitude":26.78488,"longitude":104.546742},{"companyCode":10,"companyName":"贵州高速集团","loadCode":95,"loadName":"六威","stationCode":24327,"stationName":"二塘大湾收费站","stationType":"匝道站","latitude":27.737432,"longitude":105.65891},{"companyCode":10,"companyName":"贵州高速集团","loadCode":95,"loadName":"六威","stationCode":24326,"stationName":"猴场收费站","stationType":"匝道站","latitude":26.663768,"longitude":104.728368},{"companyCode":301,"companyName":"交建集团直属路段","loadCode":99,"loadName":"三独","stationCode":25345,"stationName":"杨勇关收费站","stationType":"匝道站","latitude":26.085716,"longitude":107.830201},{"companyCode":77,"companyName":"三荔公司","loadCode":97,"loadName":"三荔","stationCode":24833,"stationName":"三都西收费站","stationType":"匝道站","latitude":25.936672,"longitude":107.84014},{"companyCode":77,"companyName":"三荔公司","loadCode":97,"loadName":"三荔","stationCode":24834,"stationName":"中和收费站","stationType":"匝道站","latitude":25.789553,"longitude":107.897648},{"companyCode":77,"companyName":"三荔公司","loadCode":97,"loadName":"三荔","stationCode":24835,"stationName":"周覃收费站","stationType":"匝道站","latitude":25.698651,"longitude":107.90863},{"companyCode":77,"companyName":"三荔公司","loadCode":97,"loadName":"三荔","stationCode":24836,"stationName":"水各收费站","stationType":"匝道站","latitude":25.576167,"longitude":107.942654},{"companyCode":77,"companyName":"三荔公司","loadCode":97,"loadName":"三荔","stationCode":24837,"stationName":"荔波机场收费站","stationType":"匝道站","latitude":25.425434,"longitude":107.932464},{"companyCode":80,"companyName":"紫望公司","loadCode":43,"loadName":"紫望","stationCode":11009,"stationName":"望谟北收费站","stationType":"匝道站","latitude":25.240913,"longitude":106.097439},{"companyCode":80,"companyName":"紫望公司","loadCode":43,"loadName":"紫望","stationCode":11010,"stationName":"打易收费站","stationType":"匝道站","latitude":25.354794,"longitude":106.096581},{"companyCode":78,"companyName":"中交荔榕","loadCode":98,"loadName":"荔榕","stationCode":25089,"stationName":"九阡收费站","stationType":"匝道站","latitude":25.632405,"longitude":108.02326},{"companyCode":78,"companyName":"中交荔榕","loadCode":98,"loadName":"荔榕","stationCode":25090,"stationName":"榕江水尾收费站","stationType":"匝道站","latitude":25.71081,"longitude":108.211573},{"companyCode":78,"companyName":"中交荔榕","loadCode":98,"loadName":"荔榕","stationCode":25091,"stationName":"榕江南收费站","stationType":"匝道站","latitude":25.849065,"longitude":108.404841},{"companyCode":81,"companyName":"中交铜怀","loadCode":33,"loadName":"铜怀","stationCode":8449,"stationName":"碧江收费站","stationType":"匝道站","latitude":27.749417,"longitude":109.278523},{"companyCode":81,"companyName":"中交铜怀","loadCode":33,"loadName":"铜怀","stationCode":8450,"stationName":"九龙洞收费站","stationType":"匝道站","latitude":27.662245,"longitude":109.406424},{"companyCode":82,"companyName":"遵义南环","loadCode":31,"loadName":"乐冷","stationCode":7937,"stationName":"石板收费站","stationType":"匝道站","latitude":25.849065,"longitude":108.404841},{"companyCode":82,"companyName":"遵义南环","loadCode":31,"loadName":"乐冷","stationCode":7938,"stationName":"芶江收费站","stationType":"匝道站","latitude":25.71081,"longitude":108.211573},{"companyCode":82,"companyName":"遵义南环","loadCode":31,"loadName":"乐冷","stationCode":7939,"stationName":"三岔收费站","stationType":"匝道站","latitude":25.632405,"longitude":108.02326}]